Codigo,ID,Nombre del emplazamiento,Direccion,Municipio,Localidad,Provincia,Latitud,Longitud,Categoria
ARBA10432,B0006,CODERE (MDQ Bolivar)(A),Av Bolivar 2239,GENERAL PUEYRREDON,MAR DEL PLATA,BUENOS AIRES,-38.004474,-57.545762,B
ARBA10433,B0007,CODERE (MDQ Edison)(A),Av Edison 477,GENERAL PUEYRREDON,MAR DEL PLATA,BUENOS AIRES,-38.041955,-57.548974,B
ARBA10434,B0008,CODERE (MDQ Independencia)(A),Av Independencia 1752,GENERAL PUEYRREDON,MAR DEL PLATA,BUENOS AIRES,-37.996832,-57.553197,B
ARBA10435,B0009,CODERE (MDQ San Martin)(A),San Martín 2460,GENERAL PUEYRREDON,MAR DEL PLATA,BUENOS AIRES,-37.997972,-57.549895,B
ARBA10828,B0012,Shopping vieja terminal (Mar del Plata(A),Alberti y Sarmiento 0,GENERAL PUEYRREDON,MAR DEL PLATA,BUENOS AIRES,-38.012442,-57.544164,B
ARBA11275,B0027,Gran Hotel Provincial Mar del Plata(A),Patricio Peralta Ramos 2502,GENERAL PUEYRREDON,MAR DEL PLATA,BUENOS AIRES,-38.006226,-57.541069,C
ARBA0316,B0722,Ciudadela (ACE) - Solo CAT x estructura.,Reconquista 179,TRES DE FEBRERO,CIUDADELA,BUENOS AIRES,-34.638058,-58.530834,C
ARBA3687,B4366,MORENO RUTA24(A),Malabia s/n   e/ Montaigne y Lavalle,MORENO,MORENO,BUENOS AIRES,-34.548256,-58.803954,C
ARBA8716,B5977,Acassuso 2(B),SAENZ VALIENTE 206   e/ CARLOS PELLEGRINI y ITALIA,SAN ISIDRO,ACASSUSO,BUENOS AIRES,-34.487485,-58.506166,C
ARBA11256,B7753,Irala y La santa Maria(A),BALLIVIAN S/N   y Esq. Arrecifes,MERLO,MERLO,BUENOS AIRES,-34.730576,-58.807689,C
ARBA0627,BA001,AYACUCHO REP,"A 450 mts de la RP 29, KM 239,5 s/n",AYACUCHO,AYACUCHO,BUENOS AIRES,-37.171777,-58.532044,B
ARBA0461,BA002,Juan Fernandez,C. Pellegrini 315 entre Del Valle y Av. Uriburu,NECOCHEA,JUAN N. FERNANDEZ,BUENOS AIRES,-38.004166,-59.264999,B
ARBA0575,BA003,Loberia,Av. Campos 330 entre 1ro. de Mayo y Arce,LOBERIA,LOBERIA,BUENOS AIRES,-38.164169,-58.781113,B
ARBA0135,BA004,Necochea TASA,Calle 61 2432 entre Calle 56 y calle 54,NECOCHEA,NECOCHEA,BUENOS AIRES,-38.556438,-58.738355,A
ARBA0290,BA005,Ramón Santamarina,Buenos Aires (14) s/n entre Av. Santa Ana (9) y Bella Vista (11),NECOCHEA,RAMON SANTAMARINA,BUENOS AIRES,-38.452778,-59.328609,C
ARBA0196,BA006,Rauch,Alberti 125 entre Moreno y Rivadavia,RAUCH,RAUCH,BUENOS AIRES,-36.777667,-59.089213,B
ARBA0436,BA007,San Manuel,"Rivadavia e/ San Martín y Belgrano, H. Yrigoyen  455",LOBERIA,SAN MANUEL,BUENOS AIRES,-37.788055,-58.845554,C
ARBA0261,BA008,Tandil Granito,"Calle s/nombre en repetidora TASA, cerro Granito",TANDIL,TANDIL,BUENOS AIRES,-37.3349,-59.164193,B
ARBA0184,BA009,Maria Ignacia,San Martin entre Roca y Rodriguez,TANDIL,MARIA IGNACIA (ESTACION VELA),BUENOS AIRES,-37.40028,-59.508057,B
ARBA0531,BA010,Nicanor Olivera,"Moreno 68, Calle 29, calle 26 (Colon), calle 24 (Irigoyen)",NECOCHEA,NICANOR OLIVERA (ESTACION LA DULCE),BUENOS AIRES,-38.280277,-59.201389,B
ARBA0121,BA011,Tandil Centro TASA,San Martin 558/562,TANDIL,TANDIL,BUENOS AIRES,-37.326111,-59.135559,P
ARBA0002,BA012,Necochea Mar,Calle 4 Bis 4113 entre Calle 83 y Calle 85,NECOCHEA,NECOCHEA,BUENOS AIRES,-38.581687,-58.730122,B
ARBA0095,BA013,Las Toscas,"Ruta N° 88, Km 84, entrada a Centinela del Mar, y  repetidora Las Toscas TASA",GENERAL ALVARADO,CENTINELA DEL MAR,BUENOS AIRES,-38.328331,-58.338886,B
ARBA1972,BA014,Tandil La Movediza,Almafuerte 1870 entre De la Canal y La Pastora,TANDIL,TANDIL,BUENOS AIRES,-37.302,-59.164,C
ARBA4143,BA015,Tandil Norte,LAVALLE 0 entre RUTA 226 y UGALDE,TANDIL,TANDIL,BUENOS AIRES,-37.297189,-59.135426,D
ARBA1290,BA016,TANDIL NUEVO (DCS),CHACRAS 196 y AV. J.B.JUSTO,TANDIL,TANDIL,BUENOS AIRES,-37.325964,-59.17577,B
ARBA1302,BA017,CERRO QUEBRACHO,Ruta Nac. 226 Km 107 0,BALCARCE,BALCARCE,BUENOS AIRES,-37.61,-58.756,C
ARBA1460,BA018,Tandil Golf,Canadá  861/63,TANDIL,TANDIL,BUENOS AIRES,-37.324111,-59.111611,A
ARBA9047,BA019,WBA019(F),ALEM 1232,TANDIL,TANDIL,BUENOS AIRES,-37.317768,-59.138416,C
ARBA3991,BA020,Quequén(A),Calle 532 0 entre Calle 549 y 0,NECOCHEA,QUEQUEN,BUENOS AIRES,-38.5571,-58.6932,C
ARBA1303,BA021,Ayacucho Centro,9 de julio 874 entre Saenz Peña y España,AYACUCHO,AYACUCHO,BUENOS AIRES,-37.151667,-58.485278,B
ARBA7063,BA022,WBA022(M),Primera Junta 1049 entre Newton (Tel 3. Mauricio Fernandez) y Antartida Argentina (tandilmat@speedy.com.ar),TANDIL,TANDIL,BUENOS AIRES,-37.312829,-59.116857,C
ARBA5253,BA023,Loberia Rep,Ruta Nac. Nº 227 km 2 s/n,LOBERIA,LOBERIA,BUENOS AIRES,-38.149593,-58.766191,C
ARBA2590,BA024,Ayacucho,BAVIO s/n y SARMIENTO,AYACUCHO,AYACUCHO,BUENOS AIRES,-37.145,-58.496,C
ARBA8606,BA025,Tandil Rivadavia(D),BELGRANO 215 entre SAN LORENZO y 14 DE JULIO (Marcelo Roestin  02494309494),TANDIL,TANDIL,BUENOS AIRES,-37.330714,-59.140364,C
ARBA8891,BA027,Necochea Oeste(A),Calle 62 0 entre Av 75 y Rolando Suarez --  rsuarez@supertoledo.com,NECOCHEA,NECOCHEA,BUENOS AIRES,-38.559402,-58.749016,C
ARBA9798,BA028,Claraz(A),"Mz. 31 , Parcela 3.   S/N",NECOCHEA,CLARAZ,BUENOS AIRES,-37.897778,-59.289167,B
ARBA7435,BA029,Tandil El Paraiso,RN 226 Km 156.5 000000,TANDIL,TANDIL,BUENOS AIRES,-37.357361,-59.02825,C
ARBA8255,BA030,Tandil El Paraiso(A),Juan Manuel de Rosas s/n y Cabana .,TANDIL,TANDIL,BUENOS AIRES,-37.326092,-59.072072,C
ARBA8256,BA031,Tandil Autodromo(A),Yugoslavia esq. Int. N A Leeson(Camino a la Cascada) .,TANDIL,TANDIL,BUENOS AIRES,-37.36217,-59.107967,D
ARBA9151,BA032,Tandil Este(A),Fleming 1050 entre Carlos Listow y S/N,TANDIL,TANDIL,BUENOS AIRES,-37.334242,-59.10616,C
ARBA13153,BA034,Tandil Obras Sanitarias(T),Dinamarca 951 y esquina Betererbide,TANDIL,TANDIL,BUENOS AIRES,-37.301589,-59.134044,A
ARBA11272,BA038,Loberia - 038(D),Newbery 0 entre Necochea y 0,LOBERIA,LOBERIA,BUENOS AIRES,-38.17112,-58.7766,C
ARBA10477,BA039,TASA QUEQUEN,Calle 523 s/n entre Calle 552 y San Martin (Calle 554),NECOCHEA,QUEQUEN,BUENOS AIRES,-38.556881,-58.716657,C
ARBA10735,BA040,Prefectura Quequén(C),520 901 entre 511 y Av. Almirante Brown,NECOCHEA,QUEQUEN,BUENOS AIRES,-38.573878,-58.70128,C
ARBA10081,BA041,Tandil La Movediza(A),Parque Industrial Tandil s/n,TANDIL,TANDIL,BUENOS AIRES,-37.289876,-59.178512,C
ARBA8815,BA042,WBA042(B),Pje San Martin al 800 s/n entre 71 y 72 (Sra. patricia  Klappenbach 4°),NECOCHEA,NECOCHEA,BUENOS AIRES,-38.573086,-58.728803,C
ARBA8854,BA043,WBA043(A),Av. 2 y los Medanos .,NECOCHEA,NECOCHEA,BUENOS AIRES,-38.591108,-58.748644,C
ARBA8574,BA044,Necochea 4,HOGAR GARCIA LANDERA 35 3298,NECOCHEA,NECOCHEA,BUENOS AIRES,-38.5397,-58.7331,C
ARBA10574,BA047,Rauch BA047(B),RUTA PROV. Nº30 A 40KM DE RAUCH S/N,RAUCH,RAUCH,BUENOS AIRES,-36.36786,-59.00419,A
ARBA9690,BA048,Rauch BA048(A),ESTACION MIRANDA S/N,RAUCH,RAUCH,BUENOS AIRES,-36.53432,-59.13387,C
ARBA10679,BA053,Necochea  - BA053(A),Avenida 75 280 entre calle 6 y calle 4,NECOCHEA,NECOCHEA,BUENOS AIRES,-38.57914,-58.72442,C
ARBA10604,BA055,Necochea  - BA055(A),63 S/N entre 82 y 86,NECOCHEA,NECOCHEA,BUENOS AIRES,-38.54542,-58.75326,C
ARBA10606,BA056,Necochea  - BA056(B),42 2345 entre 47 y 49 Sr. Diego Rua,NECOCHEA,NECOCHEA,BUENOS AIRES,-38.556681,-58.725663,C
ARBA13084,BA057,( ),xxx      s,TANDIL,TANDIL,BUENOS AIRES,-37.340439,-59.137774,C
ARBA11053,BA063,(TASA) - PIERES REP,"Ruta Nac. Nº  227 Km. 24,50. Lindero a la Escuela Provincial Nº 10. Circ.5A Mz.4 Par.3",NECOCHEA,PIERES,BUENOS AIRES,-38.3963,-58.672,D
ARBA13228,BA075,BA075(A),Santamarina 380 entre Belgrano y Maipú,TANDIL,TANDIL,BUENOS AIRES,-37.327018,-59.129296,C
ARBA11441,BA406,(TASA) - CENTINELA DEL MAR,Av Sarmiento a 700 mts del Arroyo del pescado,0,Centinela del Mar,Buenos Aires,-38.43064,-58.22524,D
ARBA13445,BA431,Valle Escondido MUDANZA BA031(A),Av Don Bosco S/N y Ceferino Namuncura,TANDIL,TANDIL,BUENOS AIRES,-37.36758,-59.09582,C
ARBA11029,BA700,(TASA) - GARDEY,Calle 17 ( Pilar ) lote 4 entre Calle18 y Calle 9 de julio,TANDIL,GARDEY,BUENOS AIRES,-37.281944,-59.357944,C
ARBA0571,BB001,Stroeder,25 de Mayo y Juan XXIII,PATAGONES,STROEDER,BUENOS AIRES,-40.233891,-62.61861,B
ARBA10254,BB003,Bahía Blanca Gorriti,Gorriti 355,BAHIA BLANCA,BAHIA BLANCA,BUENOS AIRES,-38.719833,-62.274477,C
ARBA9399,BB004,Bahia Blanca Almafuerte,,BAHIA BLANCA,BAHIA BLANCA,BUENOS AIRES,-38.720203,-62.284426,C
ARBA5059,BB006,PUNTA ALTA CLUB ROSARIO,VILLANUEVA 134,CORONEL ROSALES,PUNTA ALTA,BUENOS AIRES,-38.8894,-62.0792,C
ARBA0484,BB007,Aparicio Repetidora,"Ruta Nac. 3, Km 554.5",CORONEL DORREGO,APARICIO,BUENOS AIRES,-38.612778,-60.926113,C
ARBA0693,BB008,Goyena,Av. Fortín Sande 98 y Serafina Basoy,SAAVEDRA,GOYENA,BUENOS AIRES,-37.725002,-62.612499,C
ARBA0722,BB009,Darregueira Rep.,"Camino vecinal, 1000 m dr",PUAN,DARREGUEIRA,BUENOS AIRES,-37.676392,-63.197781,C
ARBA0675,BB010,Saavedra,Urquiza entre Maipu y Pellegrini,SAAVEDRA,SAAVEDRA,BUENOS AIRES,-37.761112,-62.348331,B
ARBA0222,BB011,Bahía Blanca TASA,Berutti 54 entre Colon y O´higgins,BAHIA BLANCA,BAHIA BLANCA,BUENOS AIRES,-38.723057,-62.267223,P
ARBA0125,BB013,Bajo Hondo Repetidora,Ruta Nac. 3 Km. 639,CORONEL ROSALES,BAJO HONDO,BUENOS AIRES,-38.761665,-61.765835,C
ARBA0106,BB014,De la Garma,Thames y Gallo,ADOLFO GONZALES CHAVES,DE LA GARMA,BUENOS AIRES,-37.964447,-60.418056,B
ARBA0477,BB015,El Perdido,Calle 7 y calle 16,CORONEL DORREGO,EL PERDIDO (ESTACION JOSE A. GUISASOLA),BUENOS AIRES,-38.67889,-61.086388,C
ARBA0310,BB016,Carmen de Patagones,Monseñor Fagnano 394 y Suipacha,PATAGONES,CARMEN DE PATAGONES,BUENOS AIRES,-40.7981,-62.983,A
ARBA0271,BB017,Cabildo,Chiclana entre Las Heras y O'Higgins,BAHIA BLANCA,CABILDO,BUENOS AIRES,-38.486111,-61.893059,C
ARBA0556,BB018,Vazquez,Camino a Mayol y proximidades de cruce de LAT,BAHIA BLANCA,VAZQUEZ,BUENOS AIRES,-38.179447,-60.168335,C
ARBA0588,BB019,Carhué Repetidora,"Ruta Nac. 33, Acceso a Carhue",ADOLFO ALSINA,CARHUE,BUENOS AIRES,-37.169234,-62.719831,C
ARBA0374,BB020,Casbas,María Uzua de Casbas 141 entre calle 6 y Roca,GUAMINI,CASBAS,BUENOS AIRES,-36.760277,-62.503887,B
ARBA13905,BB021,PUNTA ALTA ALEM," Mitre S/N Entre Saenz Peña Y Estrada. Punta Alta, Cnel. Rosales, Pcia. Bs.",CORONEL ROSALES,PUNTA ALTA,BUENOS AIRES,-38.877794,-62.063003,C
ARBA0456,BB022,Coronel Dorrego,Av. Ricardo Fuertes s/n,CORONEL DORREGO,CORONEL DORREGO,BUENOS AIRES,-38.729297,-61.299146,B
ARBA0174,BB023,Coronel Pringles Rep,Cnel. Julio Campos entre Alvarado Barrios y Spika,CORONEL PRINGLES,CORONEL PRINGLES (ESTACION PRINGLES),BUENOS AIRES,-37.981877,-61.37376,A
ARBA0169,BB024,Coronel Suárez TASA,Brandsen 146,CORONEL SUAREZ,CORONEL SUAREZ,BUENOS AIRES,-37.459446,-61.933334,B
ARBA0452,BB025,Espartillar,Belgrano s/n,CORONEL SUAREZ,ESPARTILLAR,BUENOS AIRES,-37.354443,-62.427502,C
ARBA0489,BB026,Felipe Solá,San Martin 191,PUAN,FELIPE SOLA,BUENOS AIRES,-38.007778,-62.820278,C
ARBA0023,BB027,Guaminí,H. Yrigoyen 390 y Zubillaga,GUAMINI,GUAMINI,BUENOS AIRES,-37.01363,-62.417783,B
ARBA0275,BB028,Huanguelén,Calle 8 entre calle 27 y calle 28,CORONEL SUAREZ,HUANGUELEN,BUENOS AIRES,-37.059444,-61.933891,C
ARBA0334,BB029,Indio Rico,25 de mayo y Buenos Aires,CORONEL PRINGLES,INDIO RICO,BUENOS AIRES,-38.332222,-60.891113,B
ARBA5249,BB031,WBB031(D),Rio Negro 851 entre 0 y 0,CORONEL ROSALES,PUNTA ALTA,BUENOS AIRES,-38.86125,-62.05775,C
ARBA0294,BB032,Mayor Buratovich,Bme. Mitre 1232 entre J. Couste y J. M. de Rosas,VILLARINO,MAYOR BURATOVICH,BUENOS AIRES,-39.259998,-62.565834,B
ARBA0369,BB033,Maza,Av. 25 de Mayo 185 entre Moreno y España,ADOLFO ALSINA,MAZA,BUENOS AIRES,-36.799221,-63.338982,C
ARBA0272,BB034,Médanos,Gascon 166 entre Bustamante y Laprida,VILLARINO,MEDANOS,BUENOS AIRES,-38.826389,-62.696114,B
ARBA0042,BB035,Micaela Cascallares,Camino Vecinal,TRES ARROYOS,MICAELA CASCALLARES (ESTACION CASCALLARES),BUENOS AIRES,-38.479721,-60.48,C
ARBA0493,BB036,Monte Hermoso,Bosque Alegre y Tronador,MONTE HERMOSO,MONTE HERMOSO,BUENOS AIRES,-38.980556,-61.283611,B
ARBA0466,BB037,Oriente,Francia entre Vicente López y Santamarina,CORONEL DORREGO,ORIENTE,BUENOS AIRES,-38.74649,-60.604792,B
ARBA0721,BB038,Pedro Luro,Calle 26 entre calle 5 y calle 7,VILLARINO,PEDRO LURO,BUENOS AIRES,-39.502224,-62.683334,B
ARBA0707,BB039,Pigüé Rep.,Camino del regimiento,PUAN,PIGÜE,BUENOS AIRES,-37.587498,-62.435833,B
ARBA0082,BB040,Puán Rep,Ruta 67 a Puan,PUAN,PUAN,BUENOS AIRES,-37.580833,-62.767498,C
ARBA0175,BB041,Punta Alta,12 de mayo entre Humberto I y Av. Colón,CORONEL ROSALES,PUNTA ALTA,BUENOS AIRES,-38.868223,-62.085612,A
ARBA0286,BB042,Rivera,Dorrego s/n entre Rivadavia y Moreno,ADOLFO ALSINA,RIVERA,BUENOS AIRES,-37.159725,-63.235558,B
ARBA0599,BB043,San Cayetano,Mitre 460 entre 9 de Julio y Belgrano,SAN CAYETANO,SAN CAYETANO,BUENOS AIRES,-38.346386,-59.610275,B
ARBA0380,BB044,San Román,A 200 mts. Estación San Roman,CORONEL DORREGO,SAN ROMAN,BUENOS AIRES,-38.74139,-61.536388,C
ARBA0086,BB045,Sierra Ventana,Av. Roca s/n,TORNQUIST,SIERRA DE LA VENTANA,BUENOS AIRES,-38.139446,-61.794445,B
ARBA0330,BB046,Tornquist,Ernesto Tornquist 301 y Gral Paz,TORNQUIST,TORNQUIST,BUENOS AIRES,-38.101665,-62.223888,B
ARBA0159,BB047,TRES ARROYOS TASA,Sarmiento 151/15 entre V. López y calle 1810,TRES ARROYOS,TRES ARROYOS,BUENOS AIRES,-38.378056,-60.272778,B
ARBA0018,BB048,Villa Iris Repetidora,Saenz Peña a 4 cuadras de la calle ppal. s/n,PUAN,VILLA IRIS,BUENOS AIRES,-38.162781,-63.236389,C
ARBA0383,BB049,Villalonga Rep,San Martin 235 entre Río Colorado y Riacho Azul,PATAGONES,VILLALONGA,BUENOS AIRES,-39.921947,-62.62611,C
ARBA0568,BB050,Orense,España 164,TRES ARROYOS,ORENSE,BUENOS AIRES,-38.68639,-59.77972,B
ARBA0006,BB051,Claromecó,Calle 7 2158 entre calle 22 y calle 24,TRES ARROYOS,CLAROMECO,BUENOS AIRES,-38.858334,-60.07222,C
ARBA0345,BB053,Grl. Cerri,25 de Mayo 118 entre Alberdi y Larrea,BAHIA BLANCA,GENERAL DANIEL CERRI (ESTACION GENERAL CERRI),BUENOS AIRES,-38.716946,-62.393059,B
ARBA5726,BB055,Coronel Pringles 3,24 de Septiembre s/n y José Hernández,CORONEL PRINGLES,CORONEL PRINGLES (ESTACION PRINGLES),BUENOS AIRES,-37.995167,-61.344,C
ARBA4917,BB056,CNEL. PRINGLES 4,Urbano Nuñez 0 entre Jose Garcia y Coronel Suarez,CORONEL PRINGLES,CORONEL PRINGLES (ESTACION PRINGLES),BUENOS AIRES,-37.971,-61.3423,C
ARBA0122,BB057,Garré,Pte. Illia entre Peron y Rosas,GUAMINI,GARRE,BUENOS AIRES,-36.563332,-62.599442,B
ARBA6698,BB058,TASA Mayo,Espeche 674 entre República de Siria y Alem,BAHIA BLANCA,BAHIA BLANCA,BUENOS AIRES,-38.692703,-62.280069,B
ARBA0145,BB059,Bordenave,9 de julio y Pincen,PUAN,BORDENAVE,BUENOS AIRES,-37.805238,-63.04603,C
ARBA0254,BB060,DELEGACION NORTE,Fabian Gonzales  262 entre Castelli  y Vieytes,BAHIA BLANCA,BAHIA BLANCA,BUENOS AIRES,-38.696539,-62.300527,A
ARBA0583,BB061,San Francisco de Bellocq,Calle 5 y Circunvalacion (CT),TRES ARROYOS,SAN FRANCISCO DE BELLOCQ,BUENOS AIRES,-38.69389,-60.008057,A
ARBA6179,BB062,Coronel Dorrego II,CALLE 20 1075,CORONEL DORREGO,CORONEL DORREGO,BUENOS AIRES,-38.714128,-61.278456,C
ARBA4875,BB063,Pigue Campo,Diagonal Italia s/n entre 0 y 0,PUAN,PIGÜE,BUENOS AIRES,-37.616333,-62.386611,C
ARBA3619,BB064,Estacion Transf. Norte 2 (Transba/Transener),Av. Fortaleza Protectora Argentina s/n entre Belgrano y Las Heras,BAHIA BLANCA,BAHIA BLANCA,BUENOS AIRES,-38.704922,-62.246528,C
ARBA0473,BB065,Laguna Alsina,España 669 entre 28 de febrero y Irigoyen,GUAMINI,LAGUNA ALSINA (ESTACION BONIFACIO),BUENOS AIRES,-36.808609,-62.246666,B
ARBA0658,BB066,Batanba,Fragata Sarmiento y Charcas,BAHIA BLANCA,BAHIA BLANCA,BUENOS AIRES,-38.706544,-62.236991,B
ARBA0716,BB067,Polo Petroquimico,Mosconi s/n y Misiones,BAHIA BLANCA,BAHIA BLANCA,BUENOS AIRES,-38.75528,-62.290554,A
ARBA0257,BB068,González Cháves,Juan de Garay 395,ADOLFO GONZALES CHAVES,ADOLFO GONZALES CHAVES (ESTACION CHAVES),BUENOS AIRES,-38.033333,-60.096386,B
ARBA0862,BB069,PLAZA  RIVADAVIA,"Alsina 162 entre San Martin y Soler, BBL",BAHIA BLANCA,BAHIA BLANCA,BUENOS AIRES,-38.717051,-62.263405,A
ARBA2777,BB070,VILLA VENTANA,Estancia La Vertiente altura (calle La Calandria) s/n°,TORNQUIST,VILLA VENTANA,BUENOS AIRES,-38.079,-61.931,C
ARBA0646,BB071,Aliba,Saavedra 1429,BAHIA BLANCA,BAHIA BLANCA,BUENOS AIRES,-38.734444,-62.251945,A
ARBA0309,BB072,La Piedad,Roca entre Avellaneda y Bolivia,BAHIA BLANCA,BAHIA BLANCA,BUENOS AIRES,-38.726116,-62.28556,A
ARBA0419,BB075,Villa Libre,Lainez y Necochea,BAHIA BLANCA,BAHIA BLANCA,BUENOS AIRES,-38.728333,-62.228333,B
ARBA0831,BB076,CENTRO I (BBL),"Vieytes 727 esq. Holdich, BBL",BAHIA BLANCA,BAHIA BLANCA,BUENOS AIRES,-38.713421,-62.27679,A
ARBA0496,BB077,Cochera Lavalle,Lavalle 630,BAHIA BLANCA,BAHIA BLANCA,BUENOS AIRES,-38.715557,-62.253056,A
ARBA0377,BB078,12 de octubre (BBL),12 de octubre 279 entre 19 de mayo y 3 arroyos,BAHIA BLANCA,BAHIA BLANCA,BUENOS AIRES,-38.709724,-62.260555,A
ARBA1525,BB079,Bahia San Blas,0 0 entre 0 y 0,PATAGONES,BAHIA SAN BLAS,BUENOS AIRES,-40.552858,-62.234813,B
ARBA1558,BB080,Balneario Orense,Medano 40 (Parador) s/n°,TRES ARROYOS,BALNEARIO ORENSE,BUENOS AIRES,-38.80853,-59.74167,C
ARBA0110,BB081,Bahia Blanca Centro,Gral. Paz 95,BAHIA BLANCA,BAHIA BLANCA,BUENOS AIRES,-38.721303,-62.259661,A
ARBA0723,BB082,Aldea Romana,Rastreador Fournier y Hernandarias,BAHIA BLANCA,BAHIA BLANCA,BUENOS AIRES,-38.698334,-62.195557,B
ARBA0403,BB083,Pigüé Centro,Ciudad Rodez y España,PUAN,PIGÜE,BUENOS AIRES,-37.604443,-62.405281,A
ARBA0225,BB084,Pehuenco,Ministro Villanueva entre Buchardo y Espora,CORONEL ROSALES,BALNEARIO PEHUEN CO,BUENOS AIRES,-38.986,-61.557972,C
ARBA0566,BB086,San German,La Plata s/n entre Rivadavia  y Sarmiento,PUAN,SAN GERMAN,BUENOS AIRES,-38.302223,-62.981426,C
ARBA0161,BB087,Ing .White,San Martin 3192,BAHIA BLANCA,BAHIA BLANCA,BUENOS AIRES,-38.779694,-62.271195,B
ARBA0207,BB088,Noroeste,Don Bosco 1601,BAHIA BLANCA,BAHIA BLANCA,BUENOS AIRES,-38.715749,-62.298419,A
ARBA0229,BB089,Santa Margarita,"Ruta Nacional 33 km 5, frente a calle Pigué",BAHIA BLANCA,BAHIA BLANCA,BUENOS AIRES,-38.68159,-62.278313,A
ARBA0077,BB090,La Querencia,Colonia 7 de marzo,PATAGONES,LA QUERENCIA,BUENOS AIRES,-40.493584,-62.797138,C
ARBA7355,BB091,Bahia Blanca Ruta 33,Ruta Nº 33 s/n entre Camino Parque Sesquicentenario y 0,BAHIA BLANCA,BAHIA BLANCA,BUENOS AIRES,-38.65705,-62.281694,C
ARBA5001,BB092,Grunbein(A),VENTEVEO S/N entre SCHAFINO y F.FADER,BAHIA BLANCA,BAHIA BLANCA,BUENOS AIRES,-38.757127,-62.177313,C
ARBA1309,BB093,Pago Chico,Ruta N° 229 - Km 16 aprox.,BAHIA BLANCA,BAHIA BLANCA,BUENOS AIRES,-38.782742,-62.113979,C
ARBA1189,BB094,Punta Alta TASA,Urquiza 66,CORONEL ROSALES,PUNTA ALTA,BUENOS AIRES,-38.88354,-62.081911,B
ARBA1310,BB095, Carhue (Tasa),Colon 887 y San Martin,ADOLFO ALSINA,CARHUE,BUENOS AIRES,-37.187222,-62.7575,A
ARBA0226,BB097,Darregueira TASA,Rivadavia entre Pueyrredon y Mitre,PUAN,DARREGUEIRA,BUENOS AIRES,-37.68639,-63.173058,B
ARBA1298,BB098,Hilario Ascasubi,Calle 7 entre Calle 6 y Calle 8,VILLARINO,HILARIO ASCASUBI,BUENOS AIRES,-39.375,-62.65,B
ARBA1374,BB099,Stroeder (Claro),Rta. 33 km 127 s/n,PATAGONES,STROEDER,BUENOS AIRES,-40.184247,-62.632245,C
ARBA0606,BB101,Monte Hermoso Movil,Ciudad Balnearia de Monte Hermoso,MONTE HERMOSO,MONTE HERMOSO,BUENOS AIRES,-38.982892,-61.331213,C
ARBA1552,BB102,Chasico (Tasa),0 0 entre 0 y 0,TORNQUIST,CHASICO,BUENOS AIRES,-38.33694,-62.6475,C
ARBA2798,BB103,Balneario Chapalco,CAMPO PRIVADO SR. RUBEN IBARBUREN S/N,BAHIA BLANCA,BALNEARIO CHAPALCO,BUENOS AIRES,-38.649,-63.091,C
ARBA2026,BB107,Coronel Suarez Teco,Alfonsina Storni y Ruta Prov. 85 85,CORONEL SUAREZ,CORONEL SUAREZ,BUENOS AIRES,-37.449,-61.959,C
ARBA8171,BB109,INDEPENDENCIA TASA,Castelar (e) Rosales y R. Fournier  Circ.2D Mz.304J Par.5 S/N,BAHIA BLANCA,BAHIA BLANCA,BUENOS AIRES,-38.732159,-62.238922,B
ARBA1962,BB110,Bahia Blanca French,French s/n entre Montevideo y Montevideo,BAHIA BLANCA,BAHIA BLANCA,BUENOS AIRES,-38.74,-62.264,B
ARBA10225,BB113,MONTE PLAZA SAN MARTIN,Plaza San Martín. S/N,MONTE HERMOSO,MONTE HERMOSO,BUENOS AIRES,-38.983404,-61.289945,C
ARBA10222,BB114,SAUCE GRANDE,Av. Argentina y Tucumán S/N,MONTE HERMOSO,BALNEARIO SAUCE GRANDE,BUENOS AIRES,-38.995321,-61.206601,C
ARBA10147,BB117,Villa Mitre - Castelar,Castelar 1424 entre 14 de Julio y Garibaldi,BAHIA BLANCA,BAHIA BLANCA,BUENOS AIRES,-38.727664,-62.246658,C
ARBA10140,BB118,Villa Mitre - Caseros,Caseros S/N y Washington,BAHIA BLANCA,BAHIA BLANCA,BUENOS AIRES,-38.73062,-62.247037,C
ARBA10141,BB119,Villa Mitre -Alberdi y Arrieta,Juan Bautista Alberdi 1298 y Agusntin Arrieta,BAHIA BLANCA,BAHIA BLANCA,BUENOS AIRES,-38.726196,-62.248779,C
ARBA10142,BB120,Villa Mitre - 14 de Julio,14 de Julio S/N entre Caseros y Rivadavia,BAHIA BLANCA,BAHIA BLANCA,BUENOS AIRES,-38.728573,-62.249203,C
ARBA10143,BB121,Villa Mitre - Garibaldi,Garibaldi S/N entre Castelar y Chacabuco,BAHIA BLANCA,BAHIA BLANCA,BUENOS AIRES,-38.726642,-62.244365,C
ARBA10144,BB122,Villa Mitre - Alberdi y Washington,Juan Bautista Alberdi S/N entre Washington y Remedios de Escalada de San Martin,BAHIA BLANCA,BAHIA BLANCA,BUENOS AIRES,-38.729433,-62.244424,C
ARBA6677,BB130,Algarrobo,Calle de Acceso a Algarrobo s/n entre 0 y 0,VILLARINO,JUAN COUSTE (ESTACION ALGARROBO),BUENOS AIRES,-38.885931,-63.13081,B
ARBA13633,BB140,VILLALONGA RUTA 3,RN3 S/N  ,BAHIA BLANCA,BAHIA BLANCA,BUENOS AIRES,-39.78922,-62.668316,B
ARBA11062,BB141,(TASA) - REPETIDORA KM 906,Margen izq. Ruta Nac. Nº 3 a 335 mts del mojon km 906.  PARAJE LA QUERENCIA,PATAGONES,STROEDER,BUENOS AIRES,-40.3527,-62.7709,C
ARBA4159,BB147,Tres Arroyos II,Av. Esteban Echeverria s/n entre Rodriguez Peña y 0,TRES ARROYOS,TRES ARROYOS,BUENOS AIRES,-38.38925,-60.2915,B
ARBA6323,BB173,Vivero Las Cortaderas,Hipólito Yrigoyen s/n entre Ciudad de Cali y Luis Vera,BAHIA BLANCA,BAHIA BLANCA,BUENOS AIRES,-38.692458,-62.237865,C
ARBA8000,BB185,Undiano (TMA) - Mudanza BB085,UNDIANO 320 y BERUTTI,BAHIA BLANCA,BAHIA BLANCA,BUENOS AIRES,-38.727083,-62.264,C
ARBA11006,BB190,(TASA) - CASETA REGENERADORA Nº1 CHOIQUE,"Ruta Nac. Nº 35  Km  52,597,35. Frac. de 15 x 25. Est. ""La Mariela"". Prop. Nestor Alvarez.",TORNQUIST,TORNQUIST,BUENOS AIRES,-38.445533,-62.721939,C
ARBA0322,BB209,CEC Bahia Blanca (TMA),Av. Colon 62 y Drago,BAHIA BLANCA,BAHIA BLANCA,BUENOS AIRES,-38.719749,-62.26664,P
ARBA0832,BB301,CENTRO II (BBL),"Colon 158 e/ Vieytes y Güemes (POI), BBL",BAHIA BLANCA,BAHIA BLANCA,BUENOS AIRES,-38.720854,-62.267899,D
ARBA4189,BB304,Bahia Blanca terminal(A),Libertad 440 entre Darregueira y Thopson,BAHIA BLANCA,BAHIA BLANCA,BUENOS AIRES,-38.743611,-62.245389,C
ARBA8267,BB307,Parque Patagonia,14 de Julio  4380 entre Cumeruca y Calquín,BAHIA BLANCA,BAHIA BLANCA,BUENOS AIRES,-38.696765,-62.209364,C
ARBA9797,BB308,Bahia Blanca Villa Rosas - (EX- STATEL),Gral. Arias 2300 - N.C. Circ II - Secc. D - Chac. Quintas 362 - Fracción II - Parcela 1 S/N,BAHIA BLANCA,BAHIA BLANCA,BUENOS AIRES,-38.760313,-62.259725,C
ARBA8797,BB310,Bahia Blanca Vital,Camino Parque Sesquicentenario -,BAHIA BLANCA,BAHIA BLANCA,BUENOS AIRES,-38.736768,-62.298361,C
ARBA9400,BB313,Coronel Suarez - 313(F),Deandrea esq. Irigoyen s/n .,CORONEL SUAREZ,CORONEL SUAREZ,BUENOS AIRES,-37.447461,-61.935383,C
ARBA9114,BB314,Coronel Dorrego TASA,Julio A. Roca 567/69 entre Costa y Siria.,CORONEL DORREGO,CORONEL DORREGO,BUENOS AIRES,-38.7175,-61.291389,B
ARBA5088,BB316,Carmen de Patagones Norte,M.CELEDONIO 560 entre YANQUETRUZ y 0,PATAGONES,CARMEN DE PATAGONES,BUENOS AIRES,-40.787167,-62.969278,C
ARBA9306,BB317,Coronel Pringles TASA,Belgrano 754/6 entre Dorrego  y Rivadavia,CORONEL PRINGLES,CORONEL PRINGLES (ESTACION PRINGLES),BUENOS AIRES,-37.986389,-61.356111,B
ARBA9872,BB319,PUÁN TASA,Ramón Santa marina 44 entre San Martín y Humberto primo,PUAN,PUAN,BUENOS AIRES,-37.54642,-62.7669,B
ARBA9292,BB323,Tres Arroyos - 323(C),DOMINGO VAZQUEZ 1050 entre DUGGAN y MAZZINI,TRES ARROYOS,TRES ARROYOS,BUENOS AIRES,-38.365417,-60.269861,C
ARBA7896,BB324,Coronel Suarez Sur (TMA),San Martin 1461,CORONEL SUAREZ,CORONEL SUAREZ,BUENOS AIRES,-37.475353,-61.927833,C
ARBA11069,BB330,(TASA) - SALDUNGARAY,Mitre  139 entre Roca y Donado,TORNQUIST,SALDUNGARAY,BUENOS AIRES,-38.2037,-61.7723,C
ARBA13696,BB332,Mudanza BB002(A),Lote 23 de la manzana D con frente a la calle publica s/n   e/ Juan de las piedras y calles Jose de galvez,PATAGONES,CARMEN DE PATAGONES,BUENOS AIRES,-40.781586,-62.992211,C
ARBA11005,BB335,(TASA) - CASETA REGENERADORA EL PORVENIR,"Ruta Nacional 3 KM 542,358 S/N y Estancia El Porvenir",CORONEL DORREGO,RUTA 3 - KM 542,BUENOS AIRES,-38.602722,-60.728306,B
ARBA10767,BB336,Monte Hermoso Luzuriaga,J D Perón y Vittorio Luzuriaga S/N,MONTE HERMOSO,MONTE HERMOSO,BUENOS AIRES,-38.988709,-61.298338,C
ARBA10224,BB337,Complejo del Sol,Juan Domingo Perón S/N,MONTE HERMOSO,MONTE HERMOSO,BUENOS AIRES,-38.988872,-61.277964,C
ARBA10223,BB338,Playa Centro,Av. Argentina y Patagonia S/N,MONTE HERMOSO,MONTE HERMOSO,BUENOS AIRES,-38.98827,-61.289013,C
ARBA10221,BB339,Monte Hermoso Salta,Juan Domingo Perón y Tucumán S/N,MONTE HERMOSO,MONTE HERMOSO,BUENOS AIRES,-38.988685,-61.318721,C
ARBA10243,BB340,Monte Hermoso Piedrabuena,Juan Domingo Perón y Piedrabuena S/N,MONTE HERMOSO,MONTE HERMOSO,BUENOS AIRES,-38.988511,-61.306941,C
ARBA8263,BB341,Punta Alta Villa Maio(A),Colon y Rio Juramento .,CORONEL ROSALES,PUNTA ALTA,BUENOS AIRES,-38.842417,-62.088861,C
ARBA10362,BB344,Argerich TASA,Calle Norberto Fresco  S/N entre Santiago Murphy  y España,VILLARINO,ARGERICH,BUENOS AIRES,-38.770556,-62.601667,C
ARBA10634,BB345,TASA Tte ORIGONE,"Ruta Nac. N§ 3 km 756, en la Delegacion Municipal y Sala 1§ Auxilios. Prop. Munic. de Villarino s/n",VILLARINO,TENIENTE ORIGONE,BUENOS AIRES,-39.070473,-62.562318,C
ARBA10133,BB350,Palihue - Jacksonville y De la Cuesta,De la Cuesta S/N entre Inmigrantes y Jacksonville,BAHIA BLANCA,BAHIA BLANCA,BUENOS AIRES,-38.700177,-62.262456,C
ARBA10134,BB351,Palihue - Trebolares y de la Cuesta,Trebolares S/N entre De La cuesta y Cerrito,BAHIA BLANCA,BAHIA BLANCA,BUENOS AIRES,-38.702533,-62.26108,D
ARBA10135,BB352,Palihue - Las Huertas,Las Huertas S/N entre San Andres y Treboles,BAHIA BLANCA,BAHIA BLANCA,BUENOS AIRES,-38.699192,-62.258369,C
ARBA10136,BB353,Palihue - Reconquista,La Falda S/N entre Av Reconquista y Leon de Iraela,BAHIA BLANCA,BAHIA BLANCA,BUENOS AIRES,-38.701775,-62.257054,D
ARBA10137,BB354,Palihue - Constituyentes,Los Olivos  S/N y Trebolares,BAHIA BLANCA,BAHIA BLANCA,BUENOS AIRES,-38.697436,-62.254742,C
ARBA10138,BB355,Palihue - Constituyentes 2,Constituyentes S/N entre Av Reconquista y Leon de Iraeta,BAHIA BLANCA,BAHIA BLANCA,BUENOS AIRES,-38.700604,-62.254314,C
ARBA9657,BB360,BORDEAU TASA,Islas Malvinas (ex 38) S/N y F. Hernandez,BAHIA BLANCA,BAHIA BLANCA,BUENOS AIRES,-38.687,-62.33373,C
ARBA1961,BB366,Bahia Blanca Las Tres Villas,Agustin de Arrieta 1100 0 entre 0 y 0,BAHIA BLANCA,BAHIA BLANCA,BUENOS AIRES,-38.722,-62.24,B
ARBA11200,BB370,Claromecó Costanera,Av. Costanera S/N entre Calle 44 y Calle 23,TRES ARROYOS,CLAROMECO,BUENOS AIRES,-38.85919,-60.059101,C
ARBA11194,BB371,Claromecó Dunamar,Baños Públicos Dunamar S/N,TRES ARROYOS,CLAROMECO,BUENOS AIRES,-38.861812,-60.086394,C
ARBA10484,BB372,TASA BALNEARIO RETA,Madreselva s/n s/n entre Las Glicinas y Los Claveles ,RICARDO ROJAS,RETA,BUENOS AIRES,-38.895556,-60.343056,C
ARBA6086,BB375,Oasis,Monseñor de Andrea s/n entre 3 de Febrero y 0,BAHIA BLANCA,BAHIA BLANCA,BUENOS AIRES,-38.743306,-62.215692,D
ARBA1963,BB376,Bahia Blanca Brasil,Vicente López 1330 0 entre 0 y 0,BAHIA BLANCA,BAHIA BLANCA,BUENOS AIRES,-38.709,-62.284,B
ARBA3616,BB378,Bahia Blanca Alem,Panamá 825 entre Salta y 0,BAHIA BLANCA,BAHIA BLANCA,BUENOS AIRES,-38.706611,-62.268861,B
ARBA7642,BB382,Villa Harding Green,Agote 3252 entre Araucano y Patagones,BAHIA BLANCA,BAHIA BLANCA,BUENOS AIRES,-38.720236,-62.199494,D
ARBA10948,BB389,HOTEL RJ,Latanzio  775 entre Av. Alem y Wilcomb,BAHIA BLANCA,BAHIA BLANCA,BUENOS AIRES,-38.679966,-62.293851,C
ARBA6082,BB391,BANCO NACION,Ramon y Cajal 5500 entre 0 y 0,BAHIA BLANCA,BAHIA BLANCA,BUENOS AIRES,-38.6792,-62.205744,C
ARBA1989,BB394,PUNTA ALTA,Mitre  539,CORONEL ROSALES,PUNTA ALTA,BUENOS AIRES,-38.882,-62.077,C
ARBA8160,BB400,Monte Hermoso CLARO,camino a RP 78 S/N entre S/C y S/C,MONTE HERMOSO,MONTE HERMOSO,BUENOS AIRES,-38.975,-61.3153,C
ARBA13677,BB447,TRES ARROYOS,Colón 184  ,TRES ARROYOS,TRES ARROYOS,BUENOS AIRES,-38.379052,-60.274805,B
ARBA13338,BB475,NUTREGAL,Rincón s/n entre Los Nogales y Monseñor D Andrea,BAHIA BLANCA,BAHIA BLANCA,BUENOS AIRES,-38.744149,-62.210924,C
ARBA13326,BB482,VILLA HARDING GREEN,Ignacio Pirovano 0 entre 0 y 0,BAHIA BLANCA,BAHIA BLANCA,BUENOS AIRES,-38.717631,-62.197694,C
ARBA0659,BC001,25 de Mayo (BA),San Martin (Calle 8) 959 entre calle 27 y calle 28,25 DE MAYO,25 DE MAYO,BUENOS AIRES,-35.420801,-60.16731,A
ARBA0738,BC002,9 de Julio Rep,Av. Mitre 0 entre 1° Junta y s/n,9 DE JULIO,9 DE JULIO,BUENOS AIRES,-35.436652,-60.867004,B
ARBA0441,BC003,Alfredo de Marchi,La Rioja 371,9 DE JULIO,ALFREDO DEMARCHI (ESTACION FACUNDO QUIROGA),BUENOS AIRES,-35.293889,-61.406111,B
ARBA0733,BC005,Blandengues,"Ruta 7 vieja, frente a Estacion Ferroviaria",JUNIN,BLANDENGUES,BUENOS AIRES,-34.535282,-61.251579,C
ARBA0602,BC006,Bragado Repetidora,Humberto Illia 750 entre Santa Fe y Río Negro,BRAGADO,BRAGADO,BUENOS AIRES,-35.111943,-60.510555,B
ARBA0488,BC007,Capitan Sarmiento (Tasa),Antartida Argentina y Rivadavia,CAPITAN SARMIENTO,CAPITAN SARMIENTO,BUENOS AIRES,-34.16762,-59.801403,C
ARBA0512,BC008,Arrecifes (TASA),Ramon Lorenzo 35 entre 0 y 0,ARRECIFES,ARRECIFES,BUENOS AIRES,-34.063805,-60.115913,B
ARBA0752,BC009,Carmen de Areco,Mitre entre Rivadavia y Alberti,CARMEN DE ARECO,CARMEN DE ARECO,BUENOS AIRES,-34.369917,-59.817926,A
ARBA0337,BC010,Chacabuco Repetidora (Tasa),Montesano y 1° Junta,CHACABUCO,CHACABUCO,BUENOS AIRES,-34.653955,-60.454711,A
ARBA0150,BC011,Chivilcoy,9 de Julio 92 entre Paz y Yrigoyen,CHIVILCOY,CHIVILCOY,BUENOS AIRES,-34.896526,-60.02147,A
ARBA0652,BC012,(TASA) - COLON REP,Camino vecinal s/n,COLON,COLON,BUENOS AIRES,-33.875669,-61.075127,C
ARBA4197,BC013,Colon Sur(B),Calle 50 s/n y Calle 138,COLON,COLON,BUENOS AIRES,-33.9075,-61.112417,C
ARBA0726,BC014,Colonia Sere,San Martin y Rivadavia,CARLOS TEJEDOR,COLONIA SERE,BUENOS AIRES,-35.434801,-62.719898,A
ARBA0724,BC015,Comodoro Py,Pringles s/n entre Moreno y Pellegrini,BRAGADO,COMODORO PY,BUENOS AIRES,-35.322221,-60.523499,C
ARBA0546,BC016,Del Valle,Calle 10 entre calle 1 y calle 3,25 DE MAYO,DEL VALLE,BUENOS AIRES,-35.887282,-60.720593,C
ARBA2012,BC017,9 de Julio Teco,Agustín Álvarez 1453 y esq. Garmendia,9 DE JULIO,9 DE JULIO,BUENOS AIRES,-35.444,-60.9,C
ARBA0247,BC018,General Alvear (BA),25 de Mayo entre Rivadavia y Althabe,GENERAL ALVEAR,GENERAL ALVEAR,BUENOS AIRES,-36.017019,-60.002259,A
ARBA0149,BC019,General Arenales,Alvear (Mitre) 407 y Lopez (Ayacucho),GENERAL ARENALES,GENERAL ARENALES,BUENOS AIRES,-34.300199,-61.300542,B
ARBA0009,BC020,General O'Brien,Corrientes entre Alte. Brown y Santa Fe,BRAGADO,GENERAL O'BRIEN,BUENOS AIRES,-34.90025,-60.750574,A
ARBA0420,BC021,General Pinto,Alsina 348 entre Mitre y Lacianci,GENERAL PINTO,GENERAL PINTO,BUENOS AIRES,-34.754292,-61.885269,B
ARBA0211,BC022,Gobernador Ugarte,Calle s/n,25 DE MAYO,GOBERNADOR UGARTE,BUENOS AIRES,-35.154028,-60.070713,C
ARBA0245,BC023,Guerrico,Aprox. a 1000 mts de la Ruta Nac. N 188. N.C. Circ. XI- Secc. Rural- Parc. 1410 s/n,PERGAMINO,GUERRICO,BUENOS AIRES,-33.67126,-60.410699,C
ARBA0088,BC024,Ines Indart,calle s/nombre,SALTO,INES INDART,BUENOS AIRES,-34.40044,-60.550148,A
ARBA0171,BC025,Junin Centro TASA,Gral Paz 140,JUNIN,JUNIN,BUENOS AIRES,-34.59017,-60.945668,A
ARBA0711,BC026,Junin Repetidora,Pastor Bawman y Pagan,JUNIN,JUNIN,BUENOS AIRES,-34.584125,-60.968352,A
ARBA0364,BC027,La Aurora,Av. A s/n entre calle 9 y calle 11,9 DE JULIO,LA AURORA (ESTACION LA NIÑA),BUENOS AIRES,-35.402843,-61.201694,C
ARBA0049,BC028,Lincoln REP,RN 188 acceso H. Irigoyen,LINCOLN,LINCOLN,BUENOS AIRES,-34.844944,-61.495167,C
ARBA0548,BC029,Los Toldos,General Mitre 540,GENERAL VIAMONTE,LOS TOLDOS,BUENOS AIRES,-35.002777,-61.035278,A
ARBA0411,BC030,Mariano Alfonzo,Los Pensamientos s/n entre Los Zorzales  y Las Calandrias,PERGAMINO,MARIANO H. ALFONZO (ESTACION SAN PATRICIO),BUENOS AIRES,-33.910832,-60.839289,C
ARBA0402,BC031,Mercedes TASA,Calle 20 531 y calle 23,MERCEDES,MERCEDES,BUENOS AIRES,-34.653077,-59.429541,A
ARBA0442,BC032,Norberto de la Riestra Tasa,Sarmiento y De Varas,25 DE MAYO,NORBERTO DE LA RIESTRA,BUENOS AIRES,-35.267764,-59.768708,C
ARBA0611,BC033,OHiggins,25 de mayo s/n,CHACABUCO,O'HIGGINS,BUENOS AIRES,-34.583829,-60.701255,B
ARBA0251,BC034,Pergamino TASA Rep,Mitre 445,PERGAMINO,PERGAMINO,BUENOS AIRES,-33.894854,-60.572094,B
ARBA0448,BC035,(TASA) Roberts REP,"Acceso Antas Garcia S/N, 1 Km al oeste del FFRR 0 entre - y -",LINCOLN,ROBERTS,BUENOS AIRES,-35.137307,-61.98408,B
ARBA0069,BC036,Rojas Rep (TASA),General Alvear s/n,ROJAS,ROJAS,BUENOS AIRES,-34.203176,-60.736514,C
ARBA0267,BC037,Del Carril,Mitre entre Moreno y Urquiza 1400/1500,SALADILLO,DEL CARRIL,BUENOS AIRES,-35.502255,-59.504366,B
ARBA0667,BC038,Salto Rep,"RP 32, Km 1",SALTO,SALTO,BUENOS AIRES,-34.284264,-60.234625,A
ARBA0205,BC039,San Andres de Giles Rep,Av. Soully s/n,SAN ANDRES DE GILES,SAN ANDRES DE GILES,BUENOS AIRES,-34.453819,-59.425145,A
ARBA0753,BC041,Suipacha,"Balcarce y camino de tierra, frente el cementerio 1390",SUIPACHA,SUIPACHA,BUENOS AIRES,-34.75703,-59.699869,B
ARBA0223,BC042,Timote,Ricardo Rojas s/n,CARLOS TEJEDOR,TIMOTE,BUENOS AIRES,-35.336968,-62.219181,A
ARBA0202,BC043,Tres Sargentos (TASA),Belgrano s/n,CARMEN DE ARECO,TRES SARGENTOS,BUENOS AIRES,-34.468495,-59.999685,C
ARBA0237,BC044,Vedia Rep,Coliqueo y Moreno,LEANDRO N. ALEM,VEDIA,BUENOS AIRES,-34.50069,-61.53744,C
ARBA0280,BC045,Villa Angelica,Ernesto Echague 756 y Humberto,PERGAMINO,VILLA ANGELICA (ESTACION EL SOCORRO),BUENOS AIRES,-33.653935,-60.702255,C
ARBA0692,BC046,Villa Francia,Rivadavia y Guemes,GENERAL PINTO,VILLA FRANCIA (ESTACION CORONEL GRANADA),BUENOS AIRES,-34.790554,-62.199444,B
ARBA0244,BC047,Villa Ortiz I,Sarmiento entre Suipacha y 9 de julio,ALBERTI,VILLA ORTIZ (ESTACION CORONEL MOM),BUENOS AIRES,-34.836912,-60.301259,C
ARBA0288,BC048,Alberti (Est. Vaccarezza),San Martin 186,ALBERTI,ALBERTI (ESTACION ANDRES VACCAREZZA),BUENOS AIRES,-35.033222,-60.284011,B
ARBA1409,BC049,Lincoln TECO/TP,Ramos Mejia 431 y y Drago,LINCOLN,LINCOLN,BUENOS AIRES,-34.867777,-61.520712,B
ARBA0651,BC051,Chivilcoy Sur,Ruta 5 y Rosetti,CHIVILCOY,CHIVILCOY,BUENOS AIRES,-34.917625,-59.984665,C
ARBA0164,BC052,Pasteur,Calle  9  de Julio lote 4,LINCOLN,PASTEUR,BUENOS AIRES,-35.135421,-62.235736,A
ARBA0079,BC053,Dudignac - BC053,Belgrano 231 entre Libertad  y Sampietro,9 DE JULIO,DUDIGNAC,BUENOS AIRES,-35.637884,-60.710406,C
ARBA0578,BC054,PERGAMINO,Merlino (Rio de Janeiro) entre Av. Champagnat y Ruta 32 (a 150 mts de la Ruta),PERGAMINO,PERGAMINO,BUENOS AIRES,-33.867462,-60.563249,A
ARBA0063,BC055,Germania,Iguazú entre Buenos Aires y Santa Fe,GENERAL PINTO,GERMANIA (ESTACION MAYOR JOSE ORELLANO),BUENOS AIRES,-34.579166,-62.047779,B
ARBA0866,BC056,Chacabuco,A 400mts ruta 7 km 234,CHACABUCO,CHACABUCO,BUENOS AIRES,-34.587861,-60.463861,A
ARBA1991,BC057,Chivilcoy Acceso,Calle 84 Nro 75,CHIVILCOY,CHIVILCOY,BUENOS AIRES,-34.908,-60.004,C
ARBA0730,BC058,Rojas (Central TASA),Julio A Roca 435 entre 25 de Mayo y Bme Mitre,ROJAS,ROJAS,BUENOS AIRES,-34.187574,-60.721019,A
ARBA9305,BC059,WBC059(J),VIAMONTE 69,CHIVILCOY,CHIVILCOY,BUENOS AIRES,-34.887764,-60.011402,B
ARBA4042,BC060,Pergamino Sur(G),Maraso - entre Azcuenaga y Storni,PERGAMINO,PERGAMINO,BUENOS AIRES,-33.915222,-60.574972,C
ARBA0867,BC061,Chivilcoy (TMA),Sitio CRM(rotonda ruta 5 y ruta 30/15000mts ruta 30),CHIVILCOY,CHIVILCOY,BUENOS AIRES,-34.885,-59.960278,A
ARBA5025,BC062,WBC062(C),Juana Manso 187 entre Vicente Loveira y Suipacha,CHIVILCOY,CHIVILCOY,BUENOS AIRES,-34.901183,-60.02965,C
ARBA0220,BC063,Arribeños,Calle sin nombre s/n entre a 1000m de Ruta 65 y a 700m del acceso,GENERAL ARENALES,ARRIBEÑOS,BUENOS AIRES,-34.217928,-61.364772,B
ARBA0363,BC064,Rawson,Balcarce (23) entre Junin (19) y La Plata (18),CHACABUCO,RAWSON,BUENOS AIRES,-34.601644,-60.068676,C
ARBA0643,BC065,Tomas Keating,calle sin nombre s/n entre Alsina y 1° Junta,CHACABUCO,CASTILLA (TOMAS KEATING),BUENOS AIRES,-34.603338,-59.900769,C
ARBA0404,BC066,Rancagua,Loc de Rancagua,PERGAMINO,RANCAGUA,BUENOS AIRES,-34.018903,-60.501204,C
ARBA0087,BC067,Carlos Tejedor,Rivadavia 354 entre Almiron y San Martin,CARLOS TEJEDOR,CARLOS TEJEDOR,BUENOS AIRES,-35.392579,-62.419665,B
ARBA0293,BC069,Carabelas,25 de Mayo s/n entre Sarmiento y San Martin,ROJAS,LAS CARABELAS,BUENOS AIRES,-34.034065,-60.867588,B
ARBA0590,BC070,Pedernales,Malvinas s/n y Falucho,25 DE MAYO,PEDERNALES,BUENOS AIRES,-35.266852,-59.633361,B
ARBA0030,BC073,Ferre,San Juan 145 entre Don Bosco y Bs As,GENERAL ARENALES,FERRE,BUENOS AIRES,-34.118995,-61.121019,B
ARBA0629,BC074,Baigorrita,Alte Brown entre Urquiza y Moreno,GENERAL VIAMONTE,BAIGORRITA,BUENOS AIRES,-34.736782,-60.985597,C
ARBA0680,BC077,Iriarte,Ruta 7 y Ruta Prov 14,GENERAL PINTO,COLONIA SAN RICARDO (ESTACION IRIARTE),BUENOS AIRES,-34.417606,-61.921023,C
ARBA5380,BC081,WBC081(D),A. del Valle s/n entre Necochea y Gral. Paz,GENERAL VIAMONTE,LOS TOLDOS,BUENOS AIRES,-34.992778,-61.035055,C
ARBA5040,BC082,WBC082(A),Pueyrredon s/n entre Yrigoyen y Coliqueo,GENERAL VIAMONTE,LOS TOLDOS,BUENOS AIRES,-35.009731,-61.047828,C
ARBA2611,BC083,Saladillo,MORENO Y LEDESMA S/N,SALADILLO,SALADILLO,BUENOS AIRES,-35.647,-59.77,C
ARBA6272,BC084,WBC084(E),CALLE 25   S/N entre CAMINO A LOS MACHITOS  y CALLE 204,25 DE MAYO,25 DE MAYO,BUENOS AIRES,-35.433028,-60.189542,C
ARBA0183,BC085,Saladillo,Rivadavia 2802 y Estrada,SALADILLO,SALADILLO,BUENOS AIRES,-35.635134,-59.777035,A
ARBA4979,BC088,WBC088(B),RUTA 51 KM 114 CALLE,CARMEN DE ARECO,CARMEN DE ARECO,BUENOS AIRES,-34.378,-59.8481,C
ARBA5275,BC089,WBC089(D),Intendente Blanco s/n,ARRECIFES,ARRECIFES,BUENOS AIRES,-34.0559,-60.0639,C
ARBA0648,BC090,Carlos María Naón,H. Gorosito (Calle 15) y M. Moreno (Calle 10),9 DE JULIO,CARLOS MARIA NAON,BUENOS AIRES,-35.234134,-60.820278,C
ARBA0396,BC091,Parque Borchex,Brasil 51,JUNIN,JUNIN,BUENOS AIRES,-34.586968,-60.937824,D
ARBA0639,BC092,Morse,Calle 4 entre calle 3 y calle 5,BRAGADO,MORSE,BUENOS AIRES,-34.753343,-60.835384,C
ARBA0445,BC095,Capilla del Señor,Irigoyen 745 entre Fany y Alem,EXALTACION DE LA CRUZ,CAPILLA DEL SEÑOR (ESTACION CAPILLA),BUENOS AIRES,-34.285556,-59.100935,B
ARBA0155,BC096,Moquehua,"Cuartel 11, cerca de la estacion de Gral Belgrano",CHIVILCOY,MOQUEHUA,BUENOS AIRES,-35.084935,-59.767005,B
ARBA0017,BC097,Junin norte,Libertad 965,JUNIN,JUNIN,BUENOS AIRES,-34.554519,-60.935736,A
ARBA0754,BC098,San Andres de Giles (Tasa),San Martin 465,SAN ANDRES DE GILES,SAN ANDRES DE GILES,BUENOS AIRES,-34.4415,-59.4477,B
ARBA6076,BC099,Lincoln (TMA),SEGUNDA CALLE RURAL S/N entre MASSEY y SUCRE,LINCOLN,LINCOLN,BUENOS AIRES,-34.884758,-61.541902,C
ARBA0136,BC100,ASCENSION,ESTABLECIMIENTO PARODI,GENERAL ARENALES,ASCENSION,BUENOS AIRES,-34.261665,-61.113331,B
ARBA1315,BC101,Mechita,Calle sin nombre al lado del Cementerio s/n,ALBERTI,MECHITA,BUENOS AIRES,-35.0747,-60.40143,C
ARBA1299,BC102,El Triunfo,25 de mayo s/n,LINCOLN,EL TRIUNFO,BUENOS AIRES,-35.083333,-61.516667,C
ARBA3699,BC106,Bragado Centro(A),Barrera 123,BRAGADO,BRAGADO,BUENOS AIRES,-35.118722,-60.489361,B
ARBA2270,BC111,Juan Bautista Alberdi,Saavedra S/N y Junin 0 entre 0 y 0,LEANDRO N. ALEM,JUAN BAUTISTA ALBERDI (ESTACION ALBERDI),BUENOS AIRES,-34.433,-61.815,B
ARBA1406,BC112,Leandro N. Alem,Manuel Urizar s/n entre Brignardello y Máximo Layera,LEANDRO N. ALEM,LEANDRO N. ALEM,BUENOS AIRES,-34.51829,-61.38565,B
ARBA1495,BC113,ARROYO DULCE,Av. Gowland s/n 0,SALTO,ARROYO DULCE,BUENOS AIRES,-34.10257525,-60.40991533,C
ARBA1486,BC114,Acevedo,ESQ Ruta 188 y Calle 3 S/N,PERGAMINO,ACEVEDO,BUENOS AIRES,-33.756861,-60.445306,B
ARBA1313,BC115,Arenaza,"Calle s/nombre. Corralón Municipal. Parte de la Parc. 5, Mz. 22  s/n",LINCOLN,ARENAZA,BUENOS AIRES,-34.98694,-61.76944,C
ARBA7222,BC117,Coronel Marcos Paz(B),CALLE S/ NOMBRE .,JUNIN,CORONEL MARCOS PAZ (ESTACION AGUSTIN ROCA),BUENOS AIRES,-34.502352,-60.862733,C
ARBA1484,BC118,Rafael Obligado,Ruta Nacional Nº 188 s/n y Y Acceso a Rafael Obligado,ROJAS,RAFAEL OBLIGADO,BUENOS AIRES,-34.373611,-60.759722,C
ARBA1372,BC122,9 de Julio Centro,Robbio 967 entre Mitre y San Martín,9 DE JULIO,9 DE JULIO,BUENOS AIRES,-35.445,-60.8853,B
ARBA5283,BC125,Coronel Martinez de Hoz(B),camino vecina S/N y rural,LINCOLN,CORONEL MARTINEZ DE HOZ (APEADERO KILOMETRO 322),BUENOS AIRES,-35.3293,-61.5989,B
ARBA5052,BC127,Bayauca(A),Calle de acceso sin nombre s/n entre 0 y 0,LINCOLN,BAYAUCA,BUENOS AIRES,-34.871408,-61.276425,A
ARBA1359,BC140,San Antonio de Areco TASA,Guido s/n y Aristóbulo del Valle,SAN ANTONIO DE ARECO,SAN ANTONIO DE ARECO,BUENOS AIRES,-34.249998,-59.476,A
ARBA1984,BC141,Junin Norte,Lavalle    988 y entrada por Falucho y Alberdi,JUNIN,JUNIN,BUENOS AIRES,-34.583,-60.96,C
ARBA1985,BC142,Junin Este,Av. República s/n entre Hipólito Irigoyen y Arias,JUNIN,JUNIN,BUENOS AIRES,-34.58283,-60.928706,C
ARBA1987,BC143,Junin Sur (TP),Avda. Circunvalación     s/ y Club Defensa Argentina,JUNIN,JUNIN,BUENOS AIRES,-34.607,-60.955,C
ARBA6617,BC144,Todd(A),Calle sin nombre s/n entre 0 y 0,ARRECIFES,TODD,BUENOS AIRES,-34.02867,-60.14943,C
ARBA8184,BC150,Chivilcoy (TMA) - Mudanza BC050,hijas de la misericordia S/N entre r. biaus y benitez,CHIVILCOY,CHIVILCOY,BUENOS AIRES,-34.889941,-60.028892,C
ARBA9626,BC151,WBC151(A),Av.Avellaneda 1800,CHIVILCOY,CHIVILCOY,BUENOS AIRES,-34.92677,-60.0387,C
ARBA1213,BC201,CEC Junin,Roque Saenz Peña 49 - Junin y Gandini,JUNIN,JUNIN,BUENOS AIRES,-34.59205,-60.94567,P
ARBA1462,BC299,MICROCELDA MONSANTO FONTEZUELA,Ruta 8  sn,PERGAMINO,PERGAMINO,BUENOS AIRES,-33.888682,-60.460642,C
ARBA0868,BC301,JUNIN,Sitio CRM(a 400mts ruta 7 km 290),JUNIN,JUNIN,BUENOS AIRES,-34.593056,-60.971389,A
ARBA0870,BC302,ROJAS,Mullally 3870 y a 242 m. Ruta 188,ROJAS,ROJAS,BUENOS AIRES,-34.209968,-60.719737,A
ARBA9592,BC303,25 de Mayo - 303(C),BOMBERO SIBONA S/N entre ALMA FUERTE y JUAN PAGADOY,25 DE MAYO,25 DE MAYO,BUENOS AIRES,-35.43888,-60.17635,C
ARBA9714,BC304,9 de julio 4 Claro,Vieytes y J. Ingenieros S/N,9 DE JULIO,9 DE JULIO,BUENOS AIRES,-35.45493,-60.877319,B
ARBA9894,BC306,GENERAL ALVEAR,Bernardo de Irigoyen 510 y Lavalle,GENERAL ALVEAR,GENERAL ALVEAR,BUENOS AIRES,-36.020548,-60.01591,B
ARBA8388,BC310,Chacabuco Central TASA,San Lorenzo  Circ.1A Mz.42 Par.18 88/90 entre Reconquista y San Juan,CHACABUCO,CHACABUCO,BUENOS AIRES,-34.639444,-60.470556,B
ARBA10271,BC311,Capitan Sarmiento (central TASA),Italia  914 y España ,CAPITAN SARMIENTO,CAPITAN SARMIENTO,BUENOS AIRES,-34.171142,-59.789502,B
ARBA9747,BC312,Carmen de Areco Nuevo Claro,Calle R Muñoz s/n entre Martinez y Dowling,CARMEN DE ARECO,CARMEN DE ARECO,BUENOS AIRES,-34.383056,-59.830278,B
ARBA13124,BC314,San Andrés de Giles(S),Ruta Prov N 4 Km 21.5 y Arroyo de Giles S/N,SAN ANDRES DE GILES,SAN ANDRES DE GILES,BUENOS AIRES,-34.445,-59.467222,B
ARBA9100,BC315,Villa Lia(A),Corrientes  s/n y Rivadavia,SAN ANTONIO DE ARECO,VILLA LIA,BUENOS AIRES,-34.118772,-59.443784,C
ARBA10220,BC317,Salto TASA,25 de Mayo  517 entre Lavalle y Olavarría,SALTO,SALTO,BUENOS AIRES,-34.29371,-60.25248,C
ARBA11257,BC318,Salto - 318(E),Gutierrez Paz S/N entre Humberto Illia y De Los Inmigrantes,SALTO,SALTO,BUENOS AIRES,-34.304128,-60.247066,B
ARBA9236,BC325,Rojas - 325(A),av.helguera esq. emilio mitre .,ROJAS,ROJAS,BUENOS AIRES,-34.20792,-60.72455,C
ARBA6682,BC326,Junin Golf(E),ACONCAGUA S/N e/ RUTA NAC. Nº7 Y GUARANIES .,JUNIN,JUNIN,BUENOS AIRES,-34.6179,-60.949207,C
ARBA11240,BC327,SALADILLO-327(A),Mariano Saabedra 3545 entre L. Alem y Sarmiento,SALADILLO,SALADILLO,BUENOS AIRES,-35.643861,-59.791156,C
ARBA11371,BC328,Saladillo - 328(F),MIGUEL ANGEL VOLONTE 2464 entre MARCELO T. DE ALVEAR y MAESTRO LOPEZ SERRANO,SALADILLO,SALADILLO,BUENOS AIRES,-35.62538,-59.781736,C
ARBA5386,BC329,Los Toldos II(E),Ruta 65 Acceso,GENERAL VIAMONTE,LOS TOLDOS,BUENOS AIRES,-34.994507,-61.008415,C
ARBA8838,BC332,Lincoln Irigoyen,Acceso Eva Peron S/N y Entre Posadas,LINCOLN,LINCOLN,BUENOS AIRES,-34.871671,-61.549577,C
ARBA2684,BC337,Salto 2,Continuación de Sosa S/N entre entre Paraguay y y J. Hernández,SALTO,SALTO,BUENOS AIRES,-34.302,-60.268,C
ARBA6635,BC338,Salto Sur,RUTA 191 Y CALLE CUBA S/N RUTA 1,SALTO,SALTO,BUENOS AIRES,-34.32154,-60.24399,C
ARBA9921,BC339,TASA Vedia,Sarmiento  285 y Perkins,LEANDRO N. ALEM,VEDIA,BUENOS AIRES,-34.49488,-61.54386,A
ARBA5243,BC340,SA de Areco centro(A),Ruta 8 s/n entre Ernesto Fitte y 0,SAN ANTONIO DE ARECO,SAN ANTONIO DE ARECO,BUENOS AIRES,-34.251936,-59.457619,C
ARBA13393,BC341,General Alvear - Dedicado(A)(A),9 de Julio 0 entre 25 de Mayo y 0,GENERAL ALVEAR,GENERAL ALVEAR,BUENOS AIRES,-36.037775,-60.019236,B
ARBA10543,BC342,Carcel de Junin - Dedicado(A),Ruta188 Km161 y PastorBauman,JUNIN,JUNIN,BUENOS AIRES,-34.578327,-60.980359,C
ARBA6639,BC350,Chivilcoy Las Quintas(C),ANTONIO DE TOMASO Y CALLE 528 Y 526 ANTONI,CHIVILCOY,CHIVILCOY,BUENOS AIRES,-34.87271,-60.05222,C
ARBA4965,BC385,Saladillo Oeste(E),AV. CABRAL  N' 439 entre De la Torre y Volonte,SALADILLO,SALADILLO,BUENOS AIRES,-35.6333,-59.7928,C
ARBA6684,BC391,Junin Laguna Gomez,"CALLE S/N A 400,00M DE RUTA A LA LAGUNA .",JUNIN,JUNIN,BUENOS AIRES,-34.64558,-61.00974,C
ARBA10095,BC392,Junín Norte(A),Parque industrial Junin s/n,JUNIN,JUNIN,BUENOS AIRES,-34.554245,-60.922518,C
ARBA1474,BC398,BDA Satus Ager,"Ruta 31, a 22 km de Salto, sobre derivación hacia Inés Indart s/n y A 800 metros se ingresa a Satus Ages",SALTO,RUTA PROV 31 - ACC SATUS AGER,BUENOS AIRES,-34.28912,-60.50059,C
ARBA13639,BC399,BC399(A),Ruta 205 KM 255 Gral Alvear S/N  ,GENERAL ALVEAR (BA),GENERAL ALVEAR (BA),BUENOS AIRES,-35.977436,-60.431115,C
ARBA13638,BC401,Del Carril Ruta RN 205 ,Ruta 205 KM.156 S/N  ,SALADILLO (BA),DEL CARRIL,BUENOS AIRES,-35.463387,-59.583414,C
ARBA2794,BC408,Bragado 4,Ruta 5 Km 209 1/2 S/N,BRAGADO,BRAGADO,BUENOS AIRES,-35.133,-60.449,C
ARBA8159,BC423,9 de Julio Nuevo (CLARO),Avenida Agustín Alvarez  280,9 DE JULIO,9 DE JULIO,BUENOS AIRES,-35.451276,-60.884267,C
ARBA11460,BC700,(TASA) - FRENCH,Bernardino Rivadavia esq. Berutti.,9 DE JULIO,FRENCH,BUENOS AIRES,-35.51775,-61.00422,B
ARBA11342,BC701,(TASA) - PATRICIOS,Gral Mitre (e) J.J. Castelli y M. Moreno,9 DE JULIO,PATRICIOS,BUENOS AIRES,-35.43987,-60.71959,B
ARBA11714,BC711,BC711(B),Rta. 7 KM 172 entre 0 y 0,CHACABUCO,CHACABUCO,BUENOS AIRES,-34.49465,-60.15059,C
ARBA11705,BC712,BC712(B),RUTA 7 KM 233,CHACABUCO,RUTA 7 - KM 233,BUENOS AIRES,-34.64644,-60.70566,C
ARBA13382,BC742,BC742(C),205 y 41 135 entre 0 y 0,25 DE MAYO,25 DE MAYO,BUENOS AIRES,-35.416272,-60.185009,C
ARBA13243,BC747,BC747(C),Rta. 188 Km. 15 entre 0 y 0,JUNIN,JUNIN,BUENOS AIRES,-34.567587,-60.956787,C
ARBA11203,BC758,(TASA) - AGUSTIN MOSCONI,AGUSTIN MOSCONI  S/N entre CALLE 6 y CALLE 8,11 DE SEPTIEMBRE,AGUSTIN MOSCONI,BUENOS AIRES,-35.739722,-60.556111,A
ARBA11178,BC759,(TASA) - ALVAREZ DE TOLEDO,Buenos Aires S/N entre Sarmiento y 25 de Mayo,SALADILLO,ALVAREZ DE TOLEDO,BUENOS AIRES,-35.639722,-59.629167,C
ARBA0476,BH001,Cañuelas Repetidora,25 de Mayo a 1650m. de RN 205 Km 66 s/n,CAÑUELAS,CAÑUELAS,BUENOS AIRES,-35.059483,-58.773331,B
ARBA0416,BH002,Castelli,Belgrano 31 y 25 de mayo N 334,CASTELLI,CASTELLI,BUENOS AIRES,-36.09111,-57.805279,B
ARBA0464,BH003,CHASCOMUS TASA,Libres del Sur 174 entre Franklin y Escalada,CHASCOMUS,CHASCOMUS,BUENOS AIRES,-35.579445,-58.008335,P
ARBA0028,BH004,Coronel Brandsen TMA,"Aristobulo del Valle 1120, y P,J, Ferrari",BRANDSEN,CORONEL BRANDSEN,BUENOS AIRES,-35.172918,-58.247495,B
ARBA8575,BH005,Dolores 2,MARCONI 686 entre Riobamba y Hipólito Yrigoyen,DOLORES,DOLORES,BUENOS AIRES,-36.307638,-57.676195,C
ARBA0635,BH006,General Belgrano,Rivadavia 689   e/ E Moreno y Paso,GENERAL BELGRANO,GENERAL BELGRANO (BA),BUENOS AIRES,-35.7675,-58.4981,C
ARBA0617,BH007,General Conesa (BA),"H. Yrigoyen Circ. 1, Manzana 44 entre San Martin y Gral Belgrano",TORDILLO,GENERAL CONESA,BUENOS AIRES,-36.520554,-57.324722,B
ARBA0240,BH008,General Mansilla,RP 54 y Castelli,MAGDALENA,GENERAL MANSILLA (ESTACION BARTOLOME BAVIO),BUENOS AIRES,-35.077778,-57.747223,B
ARBA0173,BH009,Gorchs,"Ruta Nac. 3, Km 150",GENERAL BELGRANO,GORCHS,BUENOS AIRES,-35.703613,-58.904724,A
ARBA0628,BH010,Las Flores (BA),Av. del Carmen 572,LAS FLORES,LAS FLORES,BUENOS AIRES,-36.014168,-59.0975,B
ARBA0540,BH011,Lobos,Buenos Aires 156 entre Balcarce y Necochea,LOBOS,LOBOS,BUENOS AIRES,-35.1875,-59.095833,A
ARBA0567,BH012,Magdalena Rep,Patricio Brennen s/n entre French y Formingo,MAGDALENA,MAGDALENA,BUENOS AIRES,-35.082747,-57.505725,A
ARBA0153,BH013,Manuel J. Cobo,San Antonio s/n (Cuartel Noveno) 1km al norte cruce RN2 y RP57,LEZAMA,MANUEL J. COBO (ESTACION LEZAMA),BUENOS AIRES,-35.865276,-57.90444,C
ARBA0864,BH014,Chascomús II (CRM),Ruta 2 km 115 al Oeste antes de Mc Donalds,CHASCOMUS,CHASCOMUS,BUENOS AIRES,-35.527722,-58.0245,A
ARBA0297,BH016,Pila TASA,San Martin (6)  s/n entre Calle 11 y Calle 13,PILA,PILA,BUENOS AIRES,-36.00639,-58.139168,B
ARBA0073,BH017,Ranchos,Luis Giles 776 entre Mitre y Alem,GENERAL PAZ,RANCHOS,BUENOS AIRES,-35.517498,-58.315556,B
ARBA0465,BH018,Roque Perez,Avellaneda 1272 entre Belgrano y Arias,ROQUE PEREZ,ROQUE PEREZ,BUENOS AIRES,-35.399445,-59.331665,A
ARBA0003,BH019,San Miguel del Monte.x,Rojas 755 entre Eva Peron y Italia,MONTE,SAN MIGUEL DEL MONTE,BUENOS AIRES,-35.44208,-58.805657,B
ARBA0242,BH020,San Vicente (Tasa),"Boulevard 25 de Mayo 147 entre Belgrano y Peña / CRAT + llave fija en la puerta, sala dentro de TASA",SAN VICENTE,SAN VICENTE,BUENOS AIRES,-35.023056,-58.421669,B
ARBA11153,BH021,Lobos Norte ,Calle Tagliero 1910 (ex 228) 1910,LOBOS,LOBOS,BUENOS AIRES,-35.160283,-59.081413,A
ARBA0361,BH022,Villa Moll,Mendoza s/n,NAVARRO,VILLA MOLL (ESTACION MOLL),BUENOS AIRES,-35.077221,-59.648335,C
ARBA0371,BH023,Navarro Rep,Calle 101 entre calle 18 y calle 19,NAVARRO,NAVARRO,BUENOS AIRES,-35.00909,-59.282221,C
ARBA0710,BH024,General Las Heras,Mitre y Lozano,GENERAL LAS HERAS,GENERAL LAS HERAS (ESTACION LAS HERAS),BUENOS AIRES,-34.927667,-58.947605,C
ARBA0633,BH025,Carlos Spegazzini,Pedro de Mendoza 350 entre Roger Balet y Llave univ. AMBA + llave de porton (2-64) 24 HS,JOSE MARIA EZEIZA,CARLOS SPEGAZZINI,BUENOS AIRES,-34.915342,-58.598526,B
ARBA0511,BH026,Pipinas,"calle 5 entre Av 10, Diagonal 21 y Calle 6",MAGDALENA,PIPINAS,BUENOS AIRES,-35.533611,-57.327778,C
ARBA0325,BH027,Angel Etcheverry,Calle 208 y Calle 52,LA PLATA,LISANDRO OLMOS,BUENOS AIRES,-35.008335,-58.051666,B
ARBA0706,BH028,Abbot,Rivadavia entre Craig y De la Feria,MONTE,ABBOTT,BUENOS AIRES,-35.281387,-58.804165,C
ARBA5190,BH029,Abasto,Calle 208 0 entre Calle 515 y Calle 516               administracion@cotea.com.ar ,LA PLATA,ABASTO,BUENOS AIRES,-34.981806,-58.092477,C
ARBA8165,BH031,CORONEL BRANDSEN - CENTRAL,P.J. Ferrari 233 entre Alberti y Las Heras,BRANDSEN,CORONEL BRANDSEN,BUENOS AIRES,-35.169116,-58.235017,B
ARBA0167,BH032,Rio Samborombom,"RN 2, Km 96,2",BRANDSEN,SAMBOROMBON,BUENOS AIRES,-35.362778,-58.051666,C
ARBA0394,BH033,Marcos Paz - TASA,"Pellegrini entre Belgrano y CRAT + AMBA, shelter en playon, 24 hs ingreso por el costado",MARCOS PAZ,MARCOS PAZ,BUENOS AIRES,-34.783492,-58.837838,A
ARBA1494,BH034,La Capilla,Ruta Provincial N° 53 s/N° y esq. Calle 1628,FLORENCIO VARELA,LA CAPILLA,BUENOS AIRES,-34.922244,-58.266273,C
ARBA0327,BH035,Villa Brown,"Calle Los Tronquitos (calle 1566) nro 2201 (a 3 Km. cruce RP53 y RP6) entre Barrio El Tropezon, inaccesible los dias de lluvia, solo 4x4 y Llave AMBA, 24 hs",FLORENCIO VARELA,VILLA BROWN,BUENOS AIRES,-34.973888,-58.281944,B
ARBA0365,BH036,Veronica,Calle 30 entre 31 y 29,PUNTA INDIO,VERONICA,BUENOS AIRES,-35.389737,-57.337593,B
ARBA0433,BH037,Esquina de Crotto,"Ruta 11, Km 227 entre Ruta 63 y combers@speedy.com.ar",TORDILLO,ESQUINA DE CROTTO,BUENOS AIRES,-36.311665,-57.379166,C
ARBA1557,BH038,Cerro de la Gloria,Ruta 11 KM 189,CASTELLI,CERRO DE LA GLORIA,BUENOS AIRES,-35.982703,-57.451415,C
ARBA10469,BH039,Glew 039(A),Vicente López y Planes S/N entre Ing. Macías y Pedro Luro,ALMIRANTE BROWN,GLEW,BUENOS AIRES,-34.896205,-58.382611,C
ARBA5126,BH040,Barrio Los Pozos(A),Ruta 3 Km 51.500 s/n entre 0 y 0,CAÑUELAS,BARRIO LOS POZOS,BUENOS AIRES,-34.933972,-58.719833,B
ARBA4912,BH041,Guernica 2 (TMA),Moreno (Ex Raul Soldi) 1477 entre Olivera y 0,PRESIDENTE PERON,GUERNICA,BUENOS AIRES,-34.902883,-58.383267,C
ARBA9205,BH042,Guernica TASA,Calle 5 S/N entre Eva Perón y Calle 30,PRESIDENTE PERON,GUERNICA,BUENOS AIRES,-34.915833,-58.378056,B
ARBA1185,BH043,Cañuelas Centro - TASA,SAN MARTIN 377 entre Moreno y Brandsen,CAÑUELAS,CAÑUELAS,BUENOS AIRES,-35.046667,-58.769167,A
ARBA9767,BH044,WBH044(A),Republica Argentina 1326/ Barrio. Las Naciones/ Guernica .,PRESIDENTE PERON,GUERNICA,BUENOS AIRES,-34.938417,-58.385639,C
ARBA1454,BH045,Dolores Central,Mitre y Vucetich s/n°,DOLORES,DOLORES,BUENOS AIRES,-36.314444,-57.676389,B
ARBA5429,BH046,Alejandro Korn,Segui s/n° entre Sarmiento y Bv de Mayo,SAN VICENTE,ALEJANDRO KORN,BUENOS AIRES,-34.984145,-58.377222,C
ARBA7087,BH047,Defensa y Justicia F. Varela (TMA),RUTA 53 s/n y 1610,FLORENCIO VARELA,FLORENCIO VARELA,BUENOS AIRES,-34.905064,-58.268947,C
ARBA9674,BH048,WBH048(A),Calle 122 2363 entre Calle 133 y Calle 135,ALMIRANTE BROWN,GLEW,BUENOS AIRES,-34.898684,-58.36536,C
ARBA0625,BH050,GUERNICA (EX-GLEW),Brasil 1000 entre Olazabal y Comahue,PRESIDENTE PERON,GUERNICA,BUENOS AIRES,-34.922002,-58.393219,A
ARBA0193,BH051,San Vicente II (CRM),Perón entre Potrerillos y Cabildo,SAN VICENTE,ALEJANDRO KORN,BUENOS AIRES,-35.002757,-58.397339,B
ARBA0321,BH052,Vicente Casares,Almirante Brown 1201 y Calle sin número,CAÑUELAS,VICENTE CASARES,BUENOS AIRES,-34.957222,-58.655281,B
ARBA0447,BH053,Cañuelas II,Salta 2598 entre Ruta 3 km 66 y Guatemala - 24 hs. Universal CRM + Apertura remota - (Claro BA719),CAÑUELAS,CAÑUELAS,BUENOS AIRES,-35.038887,-58.731113,B
ARBA1293,BH054,GENERAL BELGRANO NUEVO,CALLE 206,GENERAL BELGRANO,GENERAL BELGRANO,BUENOS AIRES,-35.773889,-58.516111,B
ARBA1383,BH056,El Pato,Ruta 2 Km 42 s/n,BERAZATEGUI,EL PATO,BUENOS AIRES,-34.910556,-58.171883,B
ARBA0430,BH057,Glew TASA,Almafuerte 50,ALMIRANTE BROWN,GLEW,BUENOS AIRES,-34.888661,-58.382713,B
ARBA1289,BH058,Estancia Benquerencia,Ruta Nacional N° 41 Km 22,MONTE,SAN MIGUEL DEL MONTE,BUENOS AIRES,-35.56455,-58.6264,C
ARBA1382,BH059, VILLARS,Av. San Martín 70 entre Independencia y Francia,GENERAL LAS HERAS,VILLARS,BUENOS AIRES,-34.8278,-58.9381,C
ARBA2721,BH060,Carlos Spegazzini,Pernambuco 1200 y Buenos Aires,JOSE MARIA EZEIZA,CARLOS SPEGAZZINI,BUENOS AIRES,-34.925,-58.601,C
ARBA1373,BH061,Jeppener,Andres Jones s/n y J B Sargioth,BRANDSEN,JEPPENER,BUENOS AIRES,-35.273565,-58.200046,B
ARBA5394,BH062,La Martona,Ruta 205 KM 56 y Sarmiento,CAÑUELAS,ALEJANDRO PETION,BUENOS AIRES,-34.9925,-58.686389,C
ARBA5416,BH063,San Miguel del Monte Rep,Sobre camino de tierra a 1600 mt. de la Ruta Nac. Nº 3  s/n° y y a 100 mts de la traza nueva de la Ruta 3.,MONTE,SAN MIGUEL DEL MONTE,BUENOS AIRES,-35.44625,-58.833804,C
ARBA0849,BH065,Angel Etcheverry II (CRM),Ruta 2 km 53 al Oeste a 500mt de cruce y Calle 515,LA PLATA,ANGEL ETCHEVERRY,BUENOS AIRES,-35.007353,-58.127192,B
ARBA1381,BH067,Uribelarrea,Gral. Belgrano s/n entre Rosembusch y Maria Auxiliadora,CAÑUELAS,URIBELARREA,BUENOS AIRES,-35.1239,-58.8906,C
ARBA9688,BH069,Numancia(A),Rojas  s/n entre Guiraldes  y Quiroga,SAN VICENTE,VILLA NUMANCIA,BUENOS AIRES,-34.95819,-58.44439,C
ARBA5169,BH070,Barrio San Esteban(G),Berutti s/n entre Belgrano (Esq.) y 0,CAÑUELAS,BARRIO SAN ESTEBAN,BUENOS AIRES,-34.976297,-58.727225,C
ARBA6040,BH071,Domsellar Miralejos(A),RUTA 210 KM 56 KM 56.,SAN VICENTE,DOMSELAAR,BUENOS AIRES,-35.0615,-58.31,C
ARBA8383,BH073,Cañuelas Norte(B),ruta 205 km 59 .,CAÑUELAS,CAÑUELAS,BUENOS AIRES,-35.022101,-58.726873,C
ARBA1684,BH074,Brandsen (Nextel),"Ruta 210 Km 66, y Cuartel 1ero (Circ: II; Parc: 181d)",BRANDSEN,CORONEL BRANDSEN,BUENOS AIRES,-35.149,-58.251,C
ARBA7221,BH075,San Vicente Pque Industrial(B),RIO CUARTO ESQ. SALADILLO  s/n,SAN VICENTE,SAN VICENTE,BUENOS AIRES,-35.014661,-58.387125,C
ARBA6977,BH076,Las heras norte(B),Ayacucho s/n y Ruta 40 .,GENERAL LAS HERAS,GENERAL LAS HERAS (ESTACION LAS HERAS),BUENOS AIRES,-34.9125,-58.9535,C
ARBA9311,BH080,Chascomus - 080(D),GONZALEZ CHAVEZ S/N entre RUTA Nº 2 y BALCARCE,CHASCOMUS,CHASCOMUS,BUENOS AIRES,-35.58067,-57.9803,C
ARBA9602,BH081,Chascomus - 081(A),Calle Alvear 0 y Salta,CHASCOMUS,CHASCOMUS,BUENOS AIRES,-35.552272,-58.015503,C
ARBA9237,BH082,Penal de Magdalena(A),Ruta 11 s/n,MAGDALENA,MAGDALENA,BUENOS AIRES,-35.107531,-57.471755,B
ARBA9412,BH086,Las Flores,Av. Rivadavia 900 y C. Marquez,LAS FLORES,LAS FLORES,BUENOS AIRES,-36.025278,-59.112778,C
ARBA9799,BH097,Navarro - 097(A),"Bmé. Mitre 775 (e) Belgrano y Constitución. NC. Circ. I, Secc. A, Mz. 15, Parc. 1b. 775",NAVARRO,NAVARRO,BUENOS AIRES,-35.004553,-59.272566,B
ARBA13900,BH100,MONTE SITES, cno. provincial 07302 y Av. Beata Madre Petra de San José,MONTE,SAN MIGUEL DEL MONTE,BUENOS AIRES,-35.4186,-58.8227,C
ARBA9918,BH101,Tasa - Altamirano,Camino a Ruta Provincial Nro 29 frente a estacion ffcc sn,BRANDSEN,ALTAMIRANO,BUENOS AIRES,-35.36075,-58.15176,C
ARBA10586,BH102,TASA PARAJE EL GUALICHU,Ruta Prov. N§ 30 en el Km 22  S/N entre al costado del arroyo Azul o Gualicho y Vivienda Sr. Pedro Omar Arano Almacen y Bar,LAS FLORES,LAS FLORES,BUENOS AIRES,-36.21735,-59.04575,D
ARBA9795,BH104,Loma Verde(A),Calle Chiramberro y San Martin. Inmueble Municipal (Ex - Estación  del FFCC) S/N,GENERAL PAZ,LOMA VERDE,BUENOS AIRES,-35.273333,-58.404167,B
ARBA9919,BH106,TASA El Trigo,Calle Publica a 700 m de la ruta prov N°63 s/n,LAS FLORES,EL TRIGO,BUENOS AIRES,-35.88115,-59.40817,D
ARBA11600,BH107,Dolores YPF(A),Rta. Nac. 2 Km 204 entre N/A y N/A,DOLORES,DOLORES,BUENOS AIRES,-36.261939,-57.710245,C
ARBA11033,BH108,(TASA) - GOMEZ ( ESTACION GOMEZ),Gervacio Truco s/Nº (e) Gagio y S/Nombre,BRANDSEN,GOMEZ,BUENOS AIRES,-35.06763,-58.16629,B
ARBA9886,BH115,Oliden TASA,"Calle Jose Hernandez S/N y esq. Maria Fuentes Deffelito NC. Circ. IX, Secc. A, Mz. 30, P. 1b",BRANDSEN,OLIDEN,BUENOS AIRES,-35.185493,-57.946184,C
ARBA13569,BH144,Mudanza de BH044(C),Parcela 10 Manzan y Parque de Las Naciones,PRESIDENTE PERON,GUERNICA,BUENOS AIRES,-34.940557,-58.38425,C
ARBA11255,BH189,LOBOS – Mudanza BH089(D),OLAVARRIETA  751,LOBOS,LOBOS,BUENOS AIRES,-35.179,-59.087,B
ARBA13130,BH235,AGUAS DANONE (CHASCOMUS)(A),Ruta 2 Km 103.5 S/N,CHASCOMUS,CHASCOMUS,BUENOS AIRES,-35.4161,-58.033,A
ARBA9951,BH301,Carlos Spegazzini - 301(A),Calle 25 de Mayo y Koch S/N,JOSE MARIA EZEIZA,CARLOS SPEGAZZINI,BUENOS AIRES,-34.910392,-58.593318,C
ARBA9718,BH302,San Vicente 3 Claro,Matheu S/N entre Urquiza y Beruti,SAN VICENTE,SAN VICENTE,BUENOS AIRES,-35.02956,-58.42726,A
ARBA1677,BH303,CHASCOMÚS,"Castelar S/N entre 12 de Octubre y Pellegrini (Circ:II, Secc:B, Ch:52, Parc:2)",CHASCOMUS,CHASCOMUS,BUENOS AIRES,-35.565711,-57.994479,C
ARBA9404,BH305,San Vicente - 305(A),Calle Bouchard 1500 .,SAN VICENTE,SAN VICENTE,BUENOS AIRES,-35.031219,-58.405589,C
ARBA9808,BH307,ALEJANDRO PETION,Estanislao del Campo (E) Circ. 2B Mz. 6 Par.25 S/N entre  Casals y J. Castro,LA MATANZA,VIRREY DEL PINO,BUENOS AIRES,-34.972398,-58.664232,C
ARBA10117,BH308,La Capilla -  Dedicado(A),CALLE 2451 S/N y CALLE 1631,FLORENCIO VARELA,LA CAPILLA,BUENOS AIRES,-34.92966,-58.25475,A
ARBA9948,BH309,TASA Lisandro Olmos,Calle 43 bis (e) s/n entre Calle 196 y Calle 197,LA PLATA,LISANDRO OLMOS,BUENOS AIRES,-34.994391,-58.048158,B
ARBA11626,BH311,BH311 Spegazzini(A),San Salvador de Jujuy S/N,JOSE MARIA EZEIZA,CARLOS SPEGAZZINI,BUENOS AIRES,-34.907159,-58.620062,C
ARBA13852,BH358,Club de Campo Benquerencia,nueva dirección,MONTE,SAN MIGUEL DEL MONTE,BUENOS AIRES,-35.564978,-58.62632,C
ARBA13051,BH706,Distribuidor Etcheverry,Ruta 2 km 59 1/2 -,LA PLATA,ANGEL ETCHEVERRY,BUENOS AIRES,-35.044979,-58.093279,C
ARBA0839,BH708,Oliden (CRM),"Ruta 2 km 82,6 al Este a 200 mt de ruta",BRANDSEN,OLIDEN,BUENOS AIRES,-35.238111,-58.0555,A
ARBA2016,BH710,Monasterio,Ruta 2 Km 139,CHASCOMUS,CHASCOMUS,BUENOS AIRES,-35.733,-57.945,C
ARBA2032,BH712,Parravicini,"Ruta 2 Km 226,5",DOLORES,DOLORES,BUENOS AIRES,-36.462,-57.724,C
ARBA13074,BH714,Area 60 zona sur,A 4 km de ruta 2 km 64 S/N entre administracion@area60.com.ar y arquitectura@area60.com.ar,BRANDSEN,CORONEL BRANDSEN,BUENOS AIRES,-35.127183,-58.106803,C
ARBA13073,BH715,Estancia La Margarita,Ruta 2 Km 74 S/N,BRANDSEN,OLIDEN,BUENOS AIRES,-35.167881,-58.037003,C
ARBA13364,BH721,BH721(A),127 134 entre 0 y 0,PRESIDENTE PERON,GUERNICA,BUENOS AIRES,-34.901552,-58.370908,C
ARBA13312,BH726,BH726(A),Bonifacio Arias 1603 entre 0 y 0,SAN VICENTE,ALEJANDRO KORN,BUENOS AIRES,-35.001,-58.376421,C
ARBA13251,BH739,BH739(A),Av. Perón 951 entre Ituzaingo y Segundo Sombra,SAN VICENTE,SAN VICENTE,BUENOS AIRES,-35.018278,-58.411531,C
ARBA0843,BH761,Castelli II (CRM),Ruta 2 km 185 al Oeste a 50 mt de ruta,CASTELLI,CASTELLI,BUENOS AIRES,-36.118833,-57.796639,C
ARBA0409,BL001,Azul,Monseñor Caneva 0 entre San Juan y Catamarca,AZUL,AZUL,BUENOS AIRES,-36.774166,-59.839722,A
ARBA0143,BL002,Benito Juarez,Sargento Cabral 26/28,BENITO JUAREZ,BENITO JUAREZ (ESTACION JUAREZ),BUENOS AIRES,-37.671391,-59.806942,B
ARBA1982,BL003,Olavarría Urquiza,Saavedra 2900,OLAVARRIA,OLAVARRIA,BUENOS AIRES,-36.901,-60.31,C
ARBA0412,BL005,General Lamadrid,B. Rivadavia 502 entre Sarmiento y 25 de Mayo,GENERAL LAMADRID,GENERAL LA MADRID,BUENOS AIRES,-37.250832,-61.261944,B
ARBA0440,BL006,Laprida (Tasa),H. Yrigoyen 1280 entre Rivadavia y Pereyra,LAPRIDA,LAPRIDA,BUENOS AIRES,-37.548611,-60.797779,B
ARBA0306,BL007,Olavarría TASA Rep,Belgrano 2966 entre Lamadrid y Moreno,OLAVARRIA,OLAVARRIA,BUENOS AIRES,-36.894726,-60.319721,A
ARBA0116,BL008,Tapalque,Mitre 131 entre 9 de Julio y Sarmiento,TAPALQUE,TAPALQUE,BUENOS AIRES,-36.359165,-60.024445,C
ARBA0113,BL009,Villa Cacique,Juarez s/n entre Santiago del Estero y Entre Rios,BENITO JUAREZ,VILLA CACIQUE,BUENOS AIRES,-37.670228,-59.399795,C
ARBA1469,BL010,Olavarria Sur,La Rioja 2493,OLAVARRIA,OLAVARRIA,BUENOS AIRES,-36.918,-60.3025,B
ARBA1459,BL011,Cementos Avellaneda,Paraje San Jacinto S/N y Acceso por Ruta 76,OLAVARRIA,SIERRAS BAYAS,BUENOS AIRES,-36.982157,-60.245855,C
ARBA0741,BL012,Hinojo,Libertad entre calle 8 y calle 12,OLAVARRIA,HINOJO,BUENOS AIRES,-36.863331,-60.165558,B
ARBA0483,BL013,Pardo,"Calle frente estacion Pardo, a 2Km RN 3 Km 220",LAS FLORES,PARDO,BUENOS AIRES,-36.243332,-59.364445,C
ARBA8254,BL014,Sierra Chica(A),Av. Pelegrini y calle s/n .,OLAVARRIA,SIERRA CHICA,BUENOS AIRES,-36.852234,-60.234596,D
ARBA0615,BL016,Cerro del Plata,"RN 3, Km 352",AZUL,CERRO DEL PLATA,BUENOS AIRES,-37.24592,-59.902564,C
ARBA0323,BL017,Estancia Las Tres Lomas,"RN 3, Km 383",BENITO JUAREZ,ESTANCIA TRES LOMAS,BUENOS AIRES,-37.460556,-59.839165,B
ARBA0021,BL018,Parish,"Sobre Estacion FFCC Parish, 2 Km de RN 3, Km 262",AZUL,PARISH,BUENOS AIRES,-36.518333,-59.632774,B
ARBA0510,BL019,Estancia Los Pinos,"RN 3, Km 315,8",AZUL,AZUL,BUENOS AIRES,-36.921947,-59.9375,C
ARBA4833,BL020,Libano,Urunday s/n entre Jacarandá y 0,GENERAL LAMADRID,LIBANO,BUENOS AIRES,-37.532583,-61.286417,C
ARBA0650,BL021,Cruce,"RN 3, Km 340,8",AZUL,CRUCE,BUENOS AIRES,-37.136112,-59.953335,C
ARBA0385,BL022,La Colina,Colon s/n entre Agricultura y Comercio,GENERAL LAMADRID,LA COLINA,BUENOS AIRES,-37.361664,-61.537498,C
ARBA0642,BL023,Azul Centro TASA,H. Yrigoyen 501,AZUL,AZUL,BUENOS AIRES,-36.779446,-59.860832,A
ARBA0674,BL024,Alzaga,Ruta 3 Km 433 aprox.,ADOLFO GONZALES CHAVES,RUTA 3 - KM 430,BUENOS AIRES,-37.878887,-60.048332,C
ARBA0305,BL025,Sierras Bayas,Rufino Arroyo 58 entre Rivadavia y Spinetto,OLAVARRIA,SIERRAS BAYAS,BUENOS AIRES,-36.935558,-60.153889,C
ARBA0756,BL026,Cachari,Belgrano y Avellaneda 404,AZUL,CACHARI,BUENOS AIRES,-36.383333,-59.5,B
ARBA5510,BL031,Barker(C),"Calle s/n circuns II, sección rural, parcela 27(n)             s/n entre 0 y 0",BENITO JUAREZ,BARKER,BUENOS AIRES,-37.639389,-59.401306,C
ARBA1993,BL032,Azul Balneario,25 de Mayo 1481 (entrada por Chubut entre Necochea y 25 de Mayo),AZUL,AZUL,BUENOS AIRES,-36.79143,-59.873645,C
ARBA11427,BL035,Olavarria - 035(C),ayacucho 2770 entre San Martín y Gral. Paz,OLAVARRIA,OLAVARRIA,BUENOS AIRES,-36.88656,-60.33144,C
ARBA1490,BL076,Chillar,RUTA 3 KM 364 s/n°,AZUL,CHILLAR,BUENOS AIRES,-37.356667,-59.941944,C
ARBA1995,BL301,Azul San Juan,Rivadavia  225,AZUL,AZUL,BUENOS AIRES,-36.767,-59.851,C
ARBA2797,BL307,Olavarria 4 Nuevo,Av. De los Trabajadores y Junin 0 entre 0 y 0,OLAVARRIA,OLAVARRIA,BUENOS AIRES,-36.872,-60.317,C
ARBA4950,BL323,Azul Centro Este(C),ALBERDI Y BOLIVAR (Torre IV) (TORRE,AZUL,AZUL,BUENOS AIRES,-36.7866,-59.8552,C
ARBA8089,BL327,Chillar NEXTEL,RN3 Km 368.3 111111,AZUL,RUTA 3 - KM 369,BUENOS AIRES,-37.368361,-59.929083,C
ARBA0118,BM001,Playa Grande,Olavarría 2469 entre Gascon y Falucho,GENERAL PUEYRREDON,MAR DEL PLATA,BUENOS AIRES,-38.023875,-57.545422,A
ARBA0715,BM002,Estadio (TMA),Av. Juan B Justo entre Av Canosa y de los Jubilados,GENERAL PUEYRREDON,MAR DEL PLATA,BUENOS AIRES,-38.016388,-57.576942,A
ARBA0861,BM003,Diario La Capital,Av. Champagnat  2551 y Alberti N 6251,GENERAL PUEYRREDON,MAR DEL PLATA,BUENOS AIRES,-37.988112,-57.588378,B
ARBA4901,BM004,WBM004(A),Av. Mitre 2644 entre Calle 52 y Calle 54,GENERAL ALVARADO,MIRAMAR,BUENOS AIRES,-38.261961,-57.851742,C
ARBA0539,BM007,General Lavalle (Tasa),"De la Serna 1251, Luro e/ B. Mitre y Armentia  s/n entre B. Mitre y Armentia",GENERAL LAVALLE,GENERAL LAVALLE,BUENOS AIRES,-36.408504,-56.940529,B
ARBA0545,BM008,Puerto,12 de Octubre 3370 y Acha,GENERAL PUEYRREDON,MAR DEL PLATA,BUENOS AIRES,-38.042637,-57.546745,B
ARBA0071,BM009,Punta Mogotes,Guernica (65)  1445 entre Castro Barros (28) y Cabrera (30),GENERAL PUEYRREDON,MAR DEL PLATA,BUENOS AIRES,-38.075275,-57.554722,B
ARBA1461,BM010,LAS GAVIOTAS,39  s/n y Mar Del Plata,VILLA GESELL,LAS GAVIOTAS,BUENOS AIRES,-37.339444,-57.028889,C
ARBA0563,BM011,Aeródromo,RN 2 (L. Lopez) entre Lorenzini y Mariani,GENERAL PUEYRREDON,MAR DEL PLATA,BUENOS AIRES,-37.947666,-57.58184,B
ARBA8890,BM013,WBM013(A),Av Peralta Ramos 1766,GENERAL PUEYRREDON,MAR DEL PLATA,BUENOS AIRES,-38.03104,-57.585743,C
ARBA0554,BM014,Balcarce,Calle 21 524/528,BALCARCE,BALCARCE,BUENOS AIRES,-37.848053,-58.259724,B
ARBA0645,BM015,Coronel Vidal,H. Yrigoyen 56 entre San Martin y General Paz,MAR CHIQUITA,CORONEL VIDAL,BUENOS AIRES,-37.448055,-57.728058,C
ARBA0185,BM016,General Guido,Gran Boulevard s/n (TASA),GENERAL GUIDO,GENERAL GUIDO,BUENOS AIRES,-36.643333,-57.79361,B
ARBA1935,BM017,Mar del Plata Santangelo,Santangelo 1567,GENERAL PUEYRREDON,MAR DEL PLATA,BUENOS AIRES,-38.048,-57.559,C
ARBA0248,BM018,General Madariaga TASA,Avellaneda 462,GENERAL MADARIAGA,GENERAL JUAN MADARIAGA,BUENOS AIRES,-36.9959,-57.1352,B
ARBA0533,BM019,Las Armas,RP 74 a 200 mts. Calle 170,MAIPU,LAS ARMAS,BUENOS AIRES,-37.080833,-57.823608,C
ARBA0235,BM020,Maipú (BA),"Ramos Mejia 400 e/ Alsina y Belgrano, Sarmiento 560",MAIPU,MAIPU,BUENOS AIRES,-36.862221,-57.883335,B
ARBA0729,BM021,Mar de Ajó TASA,De las Carreras 73 entre Bouchard y Libertador,PARTIDO DE LA COSTA,MAR DE AJO,BUENOS AIRES,-36.722389,-56.677556,P
ARBA0221,BM022,Mar del Plata Norte,San Martin 4164 entre San Juan y Olazabal,GENERAL PUEYRREDON,MAR DEL PLATA,BUENOS AIRES,-37.991669,-57.5625,A
ARBA0478,BM023,Mechongué,"Calle 4 e/ 3 y 5, Calle 13 y Av. Rivadavia",GENERAL ALVARADO,MECHONGUE,BUENOS AIRES,-38.151112,-58.228333,C
ARBA0463,BM024,Miramar TASA,Calle 28 1013 y F. de la Plaza 1451,GENERAL ALVARADO,MIRAMAR,BUENOS AIRES,-38.26889,-57.838886,B
ARBA0260,BM025,Pinamar - COOPERATIVA TELPIN,Jason 1026,PINAMAR,PINAMAR,BUENOS AIRES,-37.111942,-56.867222,A
ARBA0151,BM026,Vivoratá,"40 mts. RN 2 Km 368,2",MAR CHIQUITA,VIVORATA,BUENOS AIRES,-37.660557,-57.656391,C
ARBA0128,BM027,General Pirán,"RN 2, km 320,7",MAR CHIQUITA,GENERAL PIRAN,BUENOS AIRES,-37.264446,-57.779446,B
ARBA0471,BM028,San Clemente del Tuyú,Calle 4 2152 entre Calle 16 y Calle 17,PARTIDO DE LA COSTA,SAN CLEMENTE DEL TUYU,BUENOS AIRES,-36.357498,-56.720554,B
ARBA0189,BM029,Villa Gesell COTEL,Avenida 3 y Paseo 113,VILLA GESELL,VILLA GESELL,BUENOS AIRES,-37.266388,-56.976665,D
ARBA0089,BM030,Comandante Otamendi,Antartida Argentina y Pueyrredon,GENERAL ALVARADO,COMANDANTE NICANOR OTAMENDI,BUENOS AIRES,-38.119442,-57.840275,B
ARBA5063,BM031,WBM031(B),MARIO BRAVO  2661,GENERAL PUEYRREDON,MAR DEL PLATA,BUENOS AIRES,-38.0659,-57.5636,C
ARBA5761,BM032,WBM032(E),Roca 4848 entre Francia y Don Bosco (Sr. Ruperto Escalambro),GENERAL PUEYRREDON,MAR DEL PLATA,BUENOS AIRES,-38.000892,-57.579914,C
ARBA0431,BM033,Playa Chapadmalal,Calle 8 entre Las Focas (ex 67) y calle 65,GENERAL PUEYRREDON,CHAPADMALAL,BUENOS AIRES,-38.158424,-57.632745,C
ARBA0530,BM034,Calfucurá,"RP 11 Km 471, Est. Don Emilio, Paraje Nahuel Rucá",MAR CHIQUITA,CALFUCURA,BUENOS AIRES,-37.483891,-57.432777,C
ARBA0032,BM035,Mar del Plata Centro (Tasa),"Av, Colón 2550/2 entre Sgo, del Estero y Cordoba",GENERAL PUEYRREDON,MAR DEL PLATA,BUENOS AIRES,-38.004723,-57.549721,P
ARBA5322,BM036,WBM036(E),Gascon 1593 entre Sarmiento y Alsina    info@administrarmdq.com.ar    info@grippaldi.com.ar,GENERAL PUEYRREDON,MAR DEL PLATA,BUENOS AIRES,-38.010925,-57.541844,C
ARBA6225,BM037,Mar del Plata,Entre Rios 1759 entre San Martin y Rivadavia,GENERAL PUEYRREDON,MAR DEL PLATA,BUENOS AIRES,-38.001892,-57.5435,C
ARBA0250,BM039,Santa Teresita,Calle 4 1148 entre calle 38 y calle 39,PARTIDO DE LA COSTA,SANTA TERESITA,BUENOS AIRES,-36.5425,-56.692223,A
ARBA0180,BM040,TASA Cariló,Arrayan 1668 y Carpintero,PINAMAR,CARILO,BUENOS AIRES,-37.171391,-56.904167,B
ARBA0676,BM041,Hoteles Chapadmalal,Casa Militar de la Residencia Presidencial,GENERAL PUEYRREDON,CHAPADMALAL,BUENOS AIRES,-38.204166,-57.685001,D
ARBA0435,BM042,Santa Clara del Mar Coop,Venecia 1101/9,MAR CHIQUITA,SANTA CLARA DEL MAR,BUENOS AIRES,-37.843887,-57.508057,B
ARBA0874,BM043,Sierra de los Padres II (CRM),"Fabián y Elina (Manzana 91), en Coop de Agua",GENERAL PUEYRREDON,SIERRA DE LOS PADRES,BUENOS AIRES,-37.947778,-57.777222,C
ARBA0499,BM044,San Bernardo I (Centro),Av. San Bernardo 120 entre Chiozza y Administración Mazzetili ,PARTIDO DE LA COSTA,SAN BERNARDO,BUENOS AIRES,-36.686111,-56.678333,C
ARBA5319,BM045,Autodromo Mar del Plata (TMA),Ruta 88 Km 6.5 s/n entre 0 y 0,GENERAL PUEYRREDON,MAR DEL PLATA,BUENOS AIRES,-37.99392,-57.63798,D
ARBA0355,BM047,La Juanita,San Martin 6486 y Bordabehere,GENERAL PUEYRREDON,MAR DEL PLATA,BUENOS AIRES,-37.979446,-57.585556,B
ARBA0417,BM048,Patronato,Juan Díaz de Solis 5317 entre Galicia y Echeverría,GENERAL PUEYRREDON,MAR DEL PLATA,BUENOS AIRES,-38.027222,-57.561665,B
ARBA0681,BM050,Villa Primera (TMA),Av. Constitucion 5151 entre B.Roldan y J.Ingenieros,GENERAL PUEYRREDON,MAR DEL PLATA,BUENOS AIRES,-37.965,-57.553886,B
ARBA0187,BM051,San Jose,Garay 3136 entre Independencia iallende@mardelplata.gov.ar y Catamarca gusy_mdq@hotmail.com (Gustavo Gonzalez),GENERAL PUEYRREDON,MAR DEL PLATA,BUENOS AIRES,-38.005917,-57.558945,B
ARBA0541,BM052,Las Toninas,Calle 5 entre calle 24 y calle 26,PARTIDO DE LA COSTA,LAS TONINAS,BUENOS AIRES,-36.487221,-56.695557,B
ARBA0591,BM053,Mar del Tuyú,Avenida 4 entre calle 87 y calle 88,PARTIDO DE LA COSTA,MAR DEL TUYU,BUENOS AIRES,-36.588886,-56.694168,B
ARBA8270,BM055,CBM055(A),Almirante Brown 49 esq. Belgrano .,PARTIDO DE LA COSTA,MAR DE AJO,BUENOS AIRES,-36.74055,-56.674102,C
ARBA4767,BM056,WBM056(E),"CALLE 2  6067 entre 60 y 61 (Francia, Norma Soledad)",PARTIDO DE LA COSTA,MAR DEL TUYU,BUENOS AIRES,-36.561639,-56.690694,C
ARBA0672,BM057,Montreal,Belgrano 2281/8,GENERAL PUEYRREDON,MAR DEL PLATA,BUENOS AIRES,-38.002777,-57.544998,B
ARBA9214,BM058,WBM058(A),34 155,PARTIDO DE LA COSTA,LAS TONINAS,BUENOS AIRES,-36.493419,-56.693411,C
ARBA5469,BM059,WBM059(G),Ruta 226 Km19.500 s/n entre Rolando Pascucci (propietario) y Fernando Argüello (encargado de planta),GENERAL PUEYRREDON,SIERRA DE LOS PADRES,BUENOS AIRES,-37.906389,-57.767606,C
ARBA0147,BM060,Villa Lourdes,Solis entre Don Orione y Bosch,GENERAL PUEYRREDON,MAR DEL PLATA,BUENOS AIRES,-38.035973,-57.549557,C
ARBA0684,BM061,Canal 8,H. Yrigoyen 1569 y Av. Pedro Luro,GENERAL PUEYRREDON,MAR DEL PLATA,BUENOS AIRES,-37.998611,-57.550278,B
ARBA1778,BM062,MAIPÚ (RN 2),Juncal (Circ: I; Sec: B; Quinta 35) s/n y Moreno,MAIPU,MAIPU,BUENOS AIRES,-36.867,-57.871,C
ARBA0480,BM063,Nueva Pompeya,Necochea 4759 entre Don Bosco y Neuquén.,GENERAL PUEYRREDON,MAR DEL PLATA,BUENOS AIRES,-37.975945,-57.560638,B
ARBA0179,BM064,El Martillo,J.P.Ramos 1160/7 entre Salvador y Vertiz,GENERAL PUEYRREDON,MAR DEL PLATA,BUENOS AIRES,-38.027222,-57.579166,B
ARBA0103,BM065,San Bernardo II (Sur),Querini y calle 18 entre Falkner y El Cano,PARTIDO DE LA COSTA,SAN BERNARDO,BUENOS AIRES,-36.691944,-56.691864,C
ARBA0458,BM066,Batan,Ruta 88 Km 17 Estancia las candelarias,GENERAL PUEYRREDON,BATAN,BUENOS AIRES,-38.00861,-57.75,C
ARBA0055,BM068,Plaza Rocha,20 de Septiembre 1686,GENERAL PUEYRREDON,MAR DEL PLATA,BUENOS AIRES,-37.994446,-57.556389,B
ARBA0016,BM069,Plaza Moreno,1° de mayo 2063/6 entre Moreno y Bolivar    paucharras@hotmail.com,GENERAL PUEYRREDON,MAR DEL PLATA,BUENOS AIRES,-37.988388,-57.57547,B
ARBA0638,BM070,Hospital,Garay 2524,GENERAL PUEYRREDON,MAR DEL PLATA,BUENOS AIRES,-38.00914,-57.553736,C
ARBA0279,BM071,Sarmiento,Avellaneda 1206,GENERAL PUEYRREDON,MAR DEL PLATA,BUENOS AIRES,-38.017834,-57.541416,C
ARBA0528,BM073,Camet,Houssay (Parque Peña) s/n entre Los Quebrachos  y Las Tortoras,GENERAL PUEYRREDON,MAR DEL PLATA,BUENOS AIRES,-37.913334,-57.541111,C
ARBA0324,BM074,Libertad,Libertad 8180,GENERAL PUEYRREDON,MAR DEL PLATA,BUENOS AIRES,-37.965836,-57.598331,B
ARBA0596,BM076,Brown,Alte Brown 3336,GENERAL PUEYRREDON,MAR DEL PLATA,BUENOS AIRES,-38.0005,-57.557777,C
ARBA0657,BM078,Fortunato de la Plaza,Fortunato de la Plaza 4924 y Gianelli,GENERAL PUEYRREDON,MAR DEL PLATA,BUENOS AIRES,-38.043331,-57.573887,B
ARBA0388,BM079,Zabala,Zabala 234,GENERAL PUEYRREDON,MAR DEL PLATA,BUENOS AIRES,-37.967888,-57.576664,B
ARBA4549,BM080,Pinamar Norte (TMA),Av. Shaw 0 entre Selene y 0,PINAMAR,PINAMAR,BUENOS AIRES,-37.07919,-56.84269,C
ARBA0426,BM081,Pinamar Norte II (CRM),Nautilus s/n entre Odisea N 351 y Ulises,PINAMAR,PINAMAR,BUENOS AIRES,-37.090305,-56.836304,C
ARBA0387,BM083,Mar Azul,"Ruta 11 Km 421,8 - Acceso a Mar Azul 5°",VILLA GESELL,MAR AZUL,BUENOS AIRES,-37.32721,-57.05609,C
ARBA0370,BM085,Faro - Alfar (TMA),"calle 16 (ex 3), Hotel Alfar entre 415 (calle 1) y 417 (calle 3)",GENERAL PUEYRREDON,MAR DEL PLATA,BUENOS AIRES,-38.099167,-57.558056,C
ARBA0689,BM086,La Perla (CRM),Independencia 501 entre Necochea y Adm. Zamboni - Córdoba 2488 - zamboni@cybertech.com.ar,GENERAL PUEYRREDON,MAR DEL PLATA,BUENOS AIRES,-37.986911,-57.544499,C
ARBA0025,BM087,Santa Teresita II (CTI),Calle 33 y Diagonal 20,PARTIDO DE LA COSTA,SANTA TERESITA,BUENOS AIRES,-36.534033,-56.71381,C
ARBA4329,BM090,Feliz Camet(G),Felix Camet 1919 entre Alice y Alfonsina Storni,GENERAL PUEYRREDON,MAR DEL PLATA,BUENOS AIRES,-37.961622,-57.540883,C
ARBA0072,BM091,Villa Gesell Sur,Av 1 4531 entre Paseo 145 y Paseo 146,VILLA GESELL,VILLA GESELL,BUENOS AIRES,-37.293333,-56.995556,C
ARBA0236,BM093,VALERIA DEL MAR CENTRO,Coronel Rosales (hotel Villamora) 466,PINAMAR,VALERIA DEL MAR,BUENOS AIRES,-37.141917,-56.878972,C
ARBA0200,BM094,Valeria del Mar Ruta,RP 11 entre Acceso a Ostende y Acceso a Valeria,PINAMAR,VALERIA DEL MAR,BUENOS AIRES,-37.133556,-56.909167,A
ARBA3767,BM095,La Lucila del Mar(I),Salta s/n entre Ruta 11 y 0,PARTIDO DE LA COSTA,LUCILA DEL MAR,BUENOS AIRES,-36.664028,-56.701889,C
ARBA0282,BM096,Villa Gesell Norte.,Av. Buenos Aires 348/36 entre Alameda 204 N° 10 y Hector Santos Gris    admgris@yahoo.com.ar,VILLA GESELL,VILLA GESELL,BUENOS AIRES,-37.251804,-56.966057,B
ARBA0386,BM097,Playa Chica,Rawson 111,GENERAL PUEYRREDON,MAR DEL PLATA,BUENOS AIRES,-38.020279,-57.52861,C
ARBA1297,BM098,BALCARCE NUEVO,"CALLE 25, ESQUINA 40 , LOTE 5 Y 6 entre calle 38 y calle 40",BALCARCE,BALCARCE,BUENOS AIRES,-37.859256,-58.249066,C
ARBA3771,BM099,Aguas Verdes (TMA),Yate Fortuna 0 entre Ruta Interbalnearia y 9 de Juli,PARTIDO DE LA COSTA,AGUAS VERDES,BUENOS AIRES,-36.6399,-56.6939,C
ARBA0395,BM100,La Armonía,Avda. Circ.del Campo (R.N. 2 Km. 380)  s/n - Barrio La Armonía,GENERAL PUEYRREDON,MAR DEL PLATA,BUENOS AIRES,-37.773888,-57.6325,C
ARBA0170,BM102,Peralta Ramos,Calle 24 (ex 11) entre calle 427 y Calle 427 bis,GENERAL PUEYRREDON,MAR DEL PLATA,BUENOS AIRES,-38.09082,-57.585111,C
ARBA0446,BM103,Villa Gesell Oeste (CTI),Boulevard Silvio Gesell y Paseo 117,VILLA GESELL,VILLA GESELL,BUENOS AIRES,-37.264721,-56.986668,B
ARBA0053,BM104,Pinamar Centro II (CRM),De Las Artes 0 y Av. Del Libertador,PINAMAR,PINAMAR,BUENOS AIRES,-37.113019,-56.859933,C
ARBA1292,BM105,San Bernardo  TP,Querini 135 y Chiozza,PARTIDO DE LA COSTA,SAN BERNARDO,BUENOS AIRES,-36.6909,-56.6779,C
ARBA0139,BM106,El Cardalito,"Ruta 74 Km. 50, Establecimiento El Galpón",GENERAL MADARIAGA,GENERAL JUAN MADARIAGA,BUENOS AIRES,-37.089527,-57.376944,C
ARBA0821,BM107,Plaza San Martín,Bvar. Maritimo Peralta Ramos  1609 y Tres de Febrero,GENERAL PUEYRREDON,MAR DEL PLATA,BUENOS AIRES,-37.997841,-57.540424,C
ARBA8250,BM109,Costa del Este (TMA),Av costanera entre av 1 y av2 .,PARTIDO DE LA COSTA,COSTA DEL ESTE,BUENOS AIRES,-36.60539,-56.686989,C
ARBA1947,BM110,Mar del Plata Laguna de los Padres,"Ruta 226 Km 12.5 (club)- Parcela 862B, Circ.2, Partid.190352 S/",GENERAL PUEYRREDON,MAR DEL PLATA,BUENOS AIRES,-37.930464,-57.704217,C
ARBA10100,BM111,Mudanza BM101(G),Saavedra y Guido S/N,GENERAL PUEYRREDON,MAR DEL PLATA,BUENOS AIRES,-38.00795,-57.572142,C
ARBA4210,BM116,Miramar II (TMA),Calle 14 535 entre Calle 11 y 0,GENERAL ALVARADO,MIRAMAR,BUENOS AIRES,-38.269629,-57.829083,C
ARBA13484,BM129,Mudanza de BM029(A),Avenida 3 S/N y Paseo 113,VILLA GESELL,VILLA GESELL,BUENOS AIRES,-37.266041,-56.977086,B
ARBA0853,BM141,Chapadmalal,Calle 727 (ex 21) esq calle 32,GENERAL PUEYRREDON,CHAPADMALAL,BUENOS AIRES,-38.204345,-57.684892,B
ARBA13335,BM145,MUDANZA BM345(A),Daireaux 958 entre Av. Constitución  y Valencia,GENERAL PUEYRREDON,MAR DEL PLATA,BUENOS AIRES,-37.960764,-57.563764,C
ARBA1937,BM149,Mar del Plata El Gaucho (TMA),Av. Juan B. Justo 6262,GENERAL PUEYRREDON,MAR DEL PLATA,BUENOS AIRES,-37.99872,-57.59845,A
ARBA5227,BM172,Punta Mogotes,Napoles 1755 entre Araoz y Acevedo,GENERAL PUEYRREDON,MAR DEL PLATA,BUENOS AIRES,-38.06568,-57.548093,B
ARBA9860,BM188,MUDANZA BM088(A),MACHADO 107 entre CHIOZZA y SAN JUAN,PARTIDO DE LA COSTA,SAN BERNARDO,BUENOS AIRES,-36.700914,-56.677331,C
ARBA0613,BM202,Luro y La Rioja,Av. Luro 3000 entre La Rioja 1628 y Sra Maria ,GENERAL PUEYRREDON,MAR DEL PLATA,BUENOS AIRES,-37.997139,-57.54961,C
ARBA0140,BM207,San Martin y Corrientes,Corrientes 1721 y San Martin,GENERAL PUEYRREDON,MAR DEL PLATA,BUENOS AIRES,-38.001389,-57.54361,C
ARBA0634,BM208,Shopping Los Gallegos,Rioja (Tienda los Gallegos) entre Belgrano y Rivadavia  - Juan Stecca Jefe operaciones - jfstecca@losgallegos.com.ar,GENERAL PUEYRREDON,MAR DEL PLATA,BUENOS AIRES,-37.998917,-57.551582,C
ARBA0331,BM210,Rivadavia e Independencia,Rivadavia 3209 y Av. Independencia,GENERAL PUEYRREDON,MAR DEL PLATA,BUENOS AIRES,-37.997585,-57.553082,C
ARBA1424,BM212,CEC Mar del Plata,Av. Independencia 2019,GENERAL PUEYRREDON,MAR DEL PLATA,BUENOS AIRES,-38.002943,-57.556466,P
ARBA0061,BM213,SAC Mar del Plata (Atento),20 de septiembre 2592 entre Alberti y Falucho,GENERAL PUEYRREDON,MAR DEL PLATA,BUENOS AIRES,-38.001972,-57.562721,C
ARBA0341,BM215,Estadio Mar del Plata,Av. de las Olimpíadas y Ortíz de Zárate -,GENERAL PUEYRREDON,MAR DEL PLATA,BUENOS AIRES,-38.017299,-57.583162,C
ARBA0467,BM219,Moreno y Córdoba,Moreno 2584,GENERAL PUEYRREDON,MAR DEL PLATA,BUENOS AIRES,-38.002388,-57.54789,C
ARBA0526,BM226,Balneario Playa del Balcón (TMA),"Balneario El Balcón, Ruta 11 Km. 5.5 - Paraje El Faro",GENERAL PUEYRREDON,MAR DEL PLATA,BUENOS AIRES,-38.092194,-57.539333,D
ARBA1455,BM228,MICROCELDA SAN MARTIN Y SANTIAGO DEL ESTERO,SAN MARTIN 2520 entre SANTIAGO DEL ESTERO y Claudio Garibaldi - spinakermdp@hotmail.com.ar,GENERAL PUEYRREDON,MAR DEL PLATA,BUENOS AIRES,-37.999646,-57.546301,C
ARBA3982,BM229,Micro San Martin y San luis(A),San Luis 1721 entre San Martin y fergrossi20@gmail.com,GENERAL PUEYRREDON,MAR DEL PLATA,BUENOS AIRES,-37.999139,-57.547978,C
ARBA1427,BM231,HUB Balcarce,Estación Terrena de Balcarce s/n,BALCARCE,BALCARCE,BUENOS AIRES,-37.866944,-58.08,A
ARBA8869,BM250,Puerto Ostende(A),Av. Costanera Brown s/n y De Metz,PINAMAR,OSTENDE,BUENOS AIRES,-37.1369,-56.8711,C
ARBA8870,BM252,Barlovento(A),Costa s/n y Progreso,PINAMAR,PINAMAR,BUENOS AIRES,-37.1315,-56.8673,C
ARBA1533,BM275,Micro villa gesell,Av. 3 Y Paseo 107 - Central de Pasajes centra entre 107 y 107,VILLA GESELL,VILLA GESELL,BUENOS AIRES,-37.258855,-56.970453,C
ARBA9969,BM277,MEQUESO(A),GUEMES S/N y FALUCHO,GENERAL PUEYRREDON,MAR DEL PLATA,BUENOS AIRES,-38.011713,-57.538554,D
ARBA9970,BM278,SERVITEQ(A),GUEMES 2841,GENERAL PUEYRREDON,MAR DEL PLATA,BUENOS AIRES,-38.015198,-57.541255,D
ARBA1539,BM295,Micro La Lucila,Ribagliatti - entre Mendoza y Contacto para ingreso Inmobiliaria Roberto Rosas,PARTIDO DE LA COSTA,LUCILA DEL MAR,BUENOS AIRES,-36.658356,-56.6813,C
ARBA0818,BM301,Plaza Colón - Torre Capó (TMA),Corrientes 2432/2454,GENERAL PUEYRREDON,MAR DEL PLATA,BUENOS AIRES,-38.007388,-57.548045,A
ARBA0820,BM302,Stella Maris,Av Colon 1498 y Alsina,GENERAL PUEYRREDON,MAR DEL PLATA,BUENOS AIRES,-38.009594,-57.538434,D
ARBA0871,BM303,Plaza España,11 de Septiembre y la Rioja 3019,GENERAL PUEYRREDON,MAR DEL PLATA,BUENOS AIRES,-37.9935,-57.547139,B
ARBA0826,BM304,Torre Pasteleros,Jujuy 1540 y 25 de mayo,GENERAL PUEYRREDON,MAR DEL PLATA,BUENOS AIRES,-37.993839,-57.552964,A
ARBA0823,BM305,Los Troncos,Alvarado 1414 entre Olavarria y pani@cybertech.com.ar    luciano.pani@speedy.com.ar,GENERAL PUEYRREDON,MAR DEL PLATA,BUENOS AIRES,-38.016347,-57.543086,C
ARBA0815,BM306,Peralta Ramos Oeste,Av. Independencia 4320 y Larrea 3181,GENERAL PUEYRREDON,MAR DEL PLATA,BUENOS AIRES,-38.017944,-57.569389,A
ARBA0814,BM307,El Gaucho II (CRM),Azopardo J. B. 10050 entre administracion@mdptranservice.com.ar (Lucia Guridi) y personaltranservice@speedy.com.ar legal@mdptranservice.com.ar,GENERAL PUEYRREDON,MAR DEL PLATA,BUENOS AIRES,-38.00481,-57.612412,B
ARBA0860,BM308,Asilo Unzué (TMA),Felix U. Camet  2741 y Gral. L. Mansilla,GENERAL PUEYRREDON,MAR DEL PLATA,BUENOS AIRES,-37.953873,-57.537019,C
ARBA0813,BM309,La Florida,Della Paolera (180) 390 y Monseñor Zabala,GENERAL PUEYRREDON,MAR DEL PLATA,BUENOS AIRES,-37.958361,-57.579894,C
ARBA0824,BM310,Carlos Tejedor,Av. C. Tejedor 578 y Florisbelo Acosta,GENERAL PUEYRREDON,MAR DEL PLATA,BUENOS AIRES,-37.969126,-57.555636,C
ARBA0822,BM311,Parque Camet (TMA),"Willians 872 y Cedro Azul (Club Independiente), Scaglia 7500",GENERAL PUEYRREDON,MAR DEL PLATA,BUENOS AIRES,-37.916205,-57.549999,D
ARBA0825,BM312,Playa Grande (Torre Pampero),Formosa 53,GENERAL PUEYRREDON,MAR DEL PLATA,BUENOS AIRES,-38.030401,-57.534737,C
ARBA0816,BM313,Las Avenidas,Gaboto 4651 y Cerrito,GENERAL PUEYRREDON,MAR DEL PLATA,BUENOS AIRES,-38.033042,-57.555838,C
ARBA0819,BM314,Puerto Mar del Plata II - Prefectura (TMA),"Av. de los Pescadores (Ex A), entre Torre Prefectura, al lado de Aduana y divoper@prefecturanaval.gov (mail ART + CNR)",GENERAL PUEYRREDON,MAR DEL PLATA,BUENOS AIRES,-38.046087,-57.543713,C
ARBA0841,BM316,Villa Gesell Centro II (CRM),Paseo 112 y Calle 4,VILLA GESELL,VILLA GESELL,BUENOS AIRES,-37.264278,-56.975917,C
ARBA5301,BM317,Mar Chiquita,San Martin s/n° entre Andrade y Palacios,MAR CHIQUITA,MAR CHIQUITA,BUENOS AIRES,-37.743611,-57.427222,B
ARBA7341,BM318,Mar del Sur (Tasa),Calle 23 S/N entre Blvd. Mar del Plata y Calle 100,GENERAL ALVARADO,MAR DEL SUR,BUENOS AIRES,-38.343064,-57.994152,B
ARBA9024,BM319,Villa Gesell Centro(C),Av.3 0 entre Calle 105 y Marcelo LuKe (hijo de propietario),VILLA GESELL,VILLA GESELL,BUENOS AIRES,-37.257177,-56.969663,C
ARBA2569,BM320,Pinamar 1,CALLE DEL TRIDENTE 1128  S/N,PINAMAR,PINAMAR,BUENOS AIRES,-37.123,-56.869,C
ARBA8523,BM321,Mar de Ajo (TMA),av. costanera 786 e/moreno y cordoba 786 entre info@hotelpescador.com.ar y pao.y.gaby@hotmail.com (Sr Gabriel o Sra. Paola),PARTIDO DE LA COSTA,MAR DE AJO,BUENOS AIRES,-36.711269,-56.675456,C
ARBA4683,BM322,Playa Varese (TMA),Lavalle 2354 entre Falucho y Rivas,GENERAL PUEYRREDON,MAR DEL PLATA,BUENOS AIRES,-38.013972,-57.533056,C
ARBA7974,BM323,Mar del Plata Pqe Industrial(C),Ruta 88 km 6.5 .,GENERAL PUEYRREDON,MAR DEL PLATA,BUENOS AIRES,-38.006141,-57.665295,C
ARBA6180,BM326,Mar del Plata Acuarium(A),Av. MARTINEZ DE HOZ 5600 entre CERDEÑA - e.laugier@aquarium.com.ar y CALLE 71- acoronel@aquarium.com.ar; danielc@aquarium.com.ar,GENERAL PUEYRREDON,MAR DEL PLATA,BUENOS AIRES,-38.091639,-57.542917,C
ARBA10096,BM327,MDP Barrio Belisario Roldan(E),Rawson S/N entre Armenia y Arturo Alió,GENERAL PUEYRREDON,MAR DEL PLATA,BUENOS AIRES,-37.982716,-57.60246,C
ARBA8248,BM328,San Clemente Norte(A),Calle 1 esquina Av. VII .,PARTIDO DE LA COSTA,SAN CLEMENTE DEL TUYU,BUENOS AIRES,-36.344736,-56.725889,C
ARBA8857,BM329,Villa Gesell Playa(B),123 y Pasaje Costanera Sur .,VILLA GESELL,VILLA GESELL,BUENOS AIRES,-37.275338,-56.980844,C
ARBA8274,BM331,WBM331(A),"Montevideo 975 . entre Sra. Josefa vive en Diag. Rivadavia 105 (toldo azul y rejas negras) y Sr. Alberto Caneva o Josefa, Tel 2 Gustavo Caneva (Hijo)",PARTIDO DE LA COSTA,MAR DE AJO,BUENOS AIRES,-36.727192,-56.684389,C
ARBA8636,BM332,Las Toninas (TMA),11 N°377 377 entre Carlos Noya  y carlosnoya@hotmail.com,PARTIDO DE LA COSTA,LAS TONINAS,BUENOS AIRES,-36.47705,-56.699811,C
ARBA8779,BM333,WBM333(A),Calle 47 0 entre Mar del plata y Contacto Sr. Dario (encargado),VILLA GESELL,MAR AZUL,BUENOS AIRES,-37.352,-57.04,C
ARBA8635,BM334,San Bernardo (TMA),Diagonal Estrada 445,PARTIDO DE LA COSTA,SAN BERNARDO,BUENOS AIRES,-36.680697,-56.683222,C
ARBA8754,BM335,WBM335(A),Apolo 137,PINAMAR,PINAMAR,BUENOS AIRES,-37.10838,-56.873554,C
ARBA8782,BM336,MDP Av Della Paolera(A),ANTONIO ALICE S/N 0 entre DELLA PAOLERA y PIRÁN,GENERAL PUEYRREDON,MAR DEL PLATA,BUENOS AIRES,-37.945543,-57.570092,C
ARBA5863,BM337,Mar del Plata,Independencia 807,GENERAL PUEYRREDON,MAR DEL PLATA,BUENOS AIRES,-37.989031,-57.547286,C
ARBA8659,BM338,WBM338(A),calle 1 esquina calle 4 .,PARTIDO DE LA COSTA,SAN CLEMENTE DEL TUYU,BUENOS AIRES,-36.352369,-56.721311,C
ARBA8909,BM339,Santa Teresita 4(A),Calle 11 1603 y Calle 43,PARTIDO DE LA COSTA,SANTA TERESITA,BUENOS AIRES,-36.54511,-56.706729,C
ARBA0850,BM342,Santa Clara del Mar II (TMA),Ruta N°11 Km 497,MAR CHIQUITA,SANTA CLARA DEL MAR,BUENOS AIRES,-37.83925,-57.518667,A
ARBA9023,BM343,Carilo Playa(A),LAUREL 96 (Esq. AVUTARDA) S/N,PINAMAR,CARILO,BUENOS AIRES,-37.1647,-56.89423,C
ARBA10174,BM344,MDP Av Tejedor(A), Bolívar y Lincoln S/N,GENERAL PUEYRREDON,MAR DEL PLATA,BUENOS AIRES,-37.95628,-57.545962,C
ARBA8985,BM347,MDP Av Libertad 2(C),AV. JUAN H. JARA 1332 entre 9 DE JULIO y 3 DE FEBRERO,GENERAL PUEYRREDON,MAR DEL PLATA,BUENOS AIRES,-37.98431,-57.56849,C
ARBA8552,BM348,San Clemente del Tuyu (TMA),Calle 1 n° 2460 e/ calle 13 y calle 19 .,PARTIDO DE LA COSTA,SAN CLEMENTE DEL TUYU,BUENOS AIRES,-36.36185,-56.716339,C
ARBA9025,BM349,WBM349(F),Kenedy 7107 entre 27 y daragon@boutiquezensuite.com,PARTIDO DE LA COSTA,SANTA TERESITA,BUENOS AIRES,-36.53019,-56.68948,C
ARBA8446,BM350,El Grosellar(A),AV JOSE MANUEL ESTRADA 5525,GENERAL PUEYRREDON,MAR DEL PLATA,BUENOS AIRES,-37.9526,-57.550954,B
ARBA3979,BM351,MdP Rodriguez Peña(D),Córdoba 3375 entre Rodriguez Peña y Roca,GENERAL PUEYRREDON,MAR DEL PLATA,BUENOS AIRES,-38.012639,-57.557844,C
ARBA8853,BM353,WBM353(G),calle 73 N°101 esquina calle1 .,PARTIDO DE LA COSTA,MAR DEL TUYU,BUENOS AIRES,-36.575036,-56.688973,C
ARBA8719,BM354,WBM354(C),CATAMARCA 1962 entre MENSAJERIAS  y DE LA REDUCCION  (Adm. Taboada e hijos) La Rioja y Andrade,PARTIDO DE LA COSTA,SAN BERNARDO,BUENOS AIRES,-36.696711,-56.680472,C
ARBA8680,BM355,MDP Diagonal Gazcon(A),TOMAS EDISON 2975 entre GARCIA LORCA y GUIRALDES,GENERAL PUEYRREDON,MAR DEL PLATA,BUENOS AIRES,-38.058781,-57.569441,C
ARBA8858,BM356,WBM356(C),Av. Buenos Aires esquina av. 11 .,VILLA GESELL,VILLA GESELL,BUENOS AIRES,-37.245436,-56.971332,C
ARBA3663,BM357,Plaza Colon(B),Buenos Aires 1987 entre Moreno y Belgrano,GENERAL PUEYRREDON,MAR DEL PLATA,BUENOS AIRES,-38.004056,-57.543917,C
ARBA8979,BM358,WBM358(A),1 entre 105 y 106 .,PARTIDO DE LA COSTA,SAN CLEMENTE DEL TUYU,BUENOS AIRES,-36.404611,-56.703017,C
ARBA9026,BM359,WBM359(A),juncal  98 entre avenida del mar y rerobert@speedy.com.ar (Ruben Enrique Robert),PINAMAR,PINAMAR,BUENOS AIRES,-37.099562,-56.841456,C
ARBA9065,BM360,WBM360(A),FRAGATA LA VICTORIA Nº 4300 4300 entre victorianavarra@htlhoteles.com y Srta. Victoria Navarra gerencia@eltennis.com,PINAMAR,PINAMAR,BUENOS AIRES,-37.08332,-56.834278,C
ARBA8553,BM361,Nueva Atlantis (TMA),Lebensohn esq. Diag. Maipu .,PARTIDO DE LA COSTA,NUEVA ATLANTIS,BUENOS AIRES,-36.763817,-56.676942,C
ARBA8672,BM362,WBM362(A),AV. 7 1965 entre CALLE 44    (Dr. Hugo Rivero 1540804979 // 4224-5502 // 42547581) y CALLE 42      (Sr. Jorge Roth dueño de la Mueblería 02257-15693253),PARTIDO DE LA COSTA,LAS TONINAS,BUENOS AIRES,-36.50064,-56.69572,C
ARBA8780,BM364,Carilo Sur(A),Acacia 0 y La Costa,PINAMAR,CARILO,BUENOS AIRES,-37.175472,-56.898778,C
ARBA8331,BM365,Carilo Colibri,Arcachon s/n y Corbeta Agradable,PINAMAR,CARILO,BUENOS AIRES,-37.149444,-56.899167,C
ARBA6871,BM366,Batán(B),JULIAN RIOS  4215,GENERAL PUEYRREDON,BATAN,BUENOS AIRES,-38.008511,-57.707385,C
ARBA10895,BM369,Pinamar Centro IV(A),DE LAS ONDINIS 1418 entre del tridente y de las nereidas,PINAMAR,PINAMAR,BUENOS AIRES,-37.117244,-56.873815,C
ARBA8401,BM372,WBM372(A),"Ruta provincial 11Km 319,300 .",PARTIDO DE LA COSTA,LAS TONINAS,BUENOS AIRES,-36.486844,-56.713497,C
ARBA9066,BM373,CAMET - El Retazo(B),Esquel  1251 entre Sr. Franco Hugo Alberto (presidente Coop) y Jorge González: 0223-15-4176297,GENERAL PUEYRREDON,ESTACION CAMET,BUENOS AIRES,-37.890953,-57.602644,C
ARBA5503,BM374,Mar del Plata Hipodromo(B),Av. Pedro Luro 10000 entre Calle 248 (Esq.) y 0,GENERAL PUEYRREDON,MAR DEL PLATA,BUENOS AIRES,-37.955944,-57.628972,C
ARBA7697,BM375,Villa Gesell Repetidora (Tasa),"Ruta interbalnearia N° 11 KM 412,27 S/N",VILLA GESELL,VILLA GESELL,BUENOS AIRES,-37.250648,-56.995997,B
ARBA11457,BM376,(TASA) - ESTACION CHAPADMALAL,"Calle 24 s/Nº (e) Calle 7b y calle 9.  C - 4K Mz. 45, Parc. 16 y 17.",GENERAL PUEYRREDON,CHAPADMALAL,BUENOS AIRES,-38.037043,-57.713734,D
ARBA4127,BM377,MdP Polonia(G),Avenida Fortunato de La Plaza s/n entre Av. Polonia y Lebensohn,GENERAL PUEYRREDON,MAR DEL PLATA,BUENOS AIRES,-38.020352,-57.60498,C
ARBA8620,BM378,Camet Norte - Barrio Parque Peña (TASA),Ringuelet S/N entre Los Manzanos y La Primavera,GENERAL PUEYRREDON,MAR DEL PLATA,BUENOS AIRES,-37.9246,-57.53628,B
ARBA8795,BM379,MDP Punta Mogotes 2(A),Av. Fortunato de la Plaza 2617,GENERAL PUEYRREDON,MAR DEL PLATA,BUENOS AIRES,-38.057986,-57.553475,C
ARBA8776,BM380,Costa Esmeralda,Ruta 11 Km 382 ****** entre rcarreno@costa-esmeralda.com.ar y acreditaciones@costa-esmeralda.com.ar,PARTIDO DE LA COSTA,COSTA ESMERALDA,BUENOS AIRES,-37.020708,-56.815908,C
ARBA7741,BM381,Pinamar Playa 1(A),avenida del mar . entre Gerente: Alberto Ortelli  y Contable@terrazasalmar.com ,PINAMAR,PINAMAR,BUENOS AIRES,-37.106345,-56.846434,C
ARBA7740,BM382,Pinamar Playa 2(A),av del mar .,PINAMAR,PINAMAR,BUENOS AIRES,-37.115149,-56.854387,C
ARBA3974,BM384,MdP Rumencó(D),Hugo West s/n entre 0 y 0,GENERAL PUEYRREDON,MAR DEL PLATA,BUENOS AIRES,-38.074833,-57.604556,C
ARBA8712,BM385,MDP La Serena(K),CALLE 445 S/ N entre CALLE 4 y CALLE 6 (carpinteria Sanchez y Sanchez),GENERAL PUEYRREDON,MAR DEL PLATA,BUENOS AIRES,-38.106333,-57.580053,C
ARBA4496,BM386,Mar del Plata libertad(A),LIBERTAD 3780 entre DORREGO y 14 DE JULIO,GENERAL PUEYRREDON,MAR DEL PLATA,BUENOS AIRES,-37.988,-57.554417,C
ARBA8964,BM387,Pinamar Playa 3(B),De los Delfines 81  .,PINAMAR,PINAMAR,BUENOS AIRES,-37.119125,-56.858349,C
ARBA7577,BM388,Pinamar Playa 4(A),niza 412,PINAMAR,OSTENDE,BUENOS AIRES,-37.133064,-56.871151,C
ARBA1717,BM389,SAN CLEMENTE,Chacra 11 lote especial 7     s/,PARTIDO DE LA COSTA,SAN CLEMENTE DEL TUYU,BUENOS AIRES,-36.379,-56.734,C
ARBA7704,BM390,Pinamar Golf(A),Eneas esquina Los Patos .,PINAMAR,PINAMAR,BUENOS AIRES,-37.10416,-56.8657,C
ARBA7638,BM391,Villa Gesell Sur 2(A),137 s/n entre 4 y 5,VILLA GESELL,VILLA GESELL,BUENOS AIRES,-37.283033,-56.993432,C
ARBA9108,BM392,Mar de las Pampas(A),Cuyo s/n entre Roca   (- Fernando Parreta 011 15 51617490 - propietario) y Virazón - ( roncoroni antonio santiago victorio - contacto alternativo),VILLA GESELL,MAR DE LAS PAMPAS,BUENOS AIRES,-37.327901,-57.021029,C
ARBA7476,BM393,Barrio San Eduardo,Calle 2 S/N entre Calle 1 y Calle 3,GENERAL PUEYRREDON,ESTACION CHAPADMALAL,BUENOS AIRES,-38.204722,-57.7075,C
ARBA9107,BM394,WBM394(A),Mendoza 3689 entre Adm. Taboada e Hijos La Rioja y Andrade y Retirar llaves por inmobiliaria: Andrade 287 o en frente que está la ADM.,PARTIDO DE LA COSTA,SAN BERNARDO,BUENOS AIRES,-36.676067,-56.679089,C
ARBA8755,BM395,MDP Barrio Alfar(A),Serrano 3501 entre Calle 67 y Isla Cerdeña y Sr. Fenice C4 2do. Piso,GENERAL PUEYRREDON,MAR DEL PLATA,BUENOS AIRES,-38.084831,-57.545722,C
ARBA10968,BM396,Villa Gesell Barrio Norte(C),Calle 204 S/N entre Calle 305 y Calle 306,VILLA GESELL,VILLA GESELL,BUENOS AIRES,-37.249015,-56.959357,C
ARBA8681,BM397,MDP Noroeste(A),ITUZAINGO 9495 entre BRANDSEN y R. ARABE SIRIA  Sr. Humberto (Teléfono 1),GENERAL PUEYRREDON,MAR DEL PLATA,BUENOS AIRES,-37.951186,-57.605531,C
ARBA6377,BM398,Balcarce Estacion,Calle 8  525,BALCARCE,BALCARCE,BUENOS AIRES,-37.836833,-58.252583,C
ARBA9925,BM401,TASA LOS PINOS,Lindero a la Estafeta Postal. Prop. Sociedad de Fomento Los Pinos. s/n,BALCARCE,LOS PINOS,BUENOS AIRES,-37.936023,-58.319646,C
ARBA9873,BM404,SAN AGUSTIN TASA,"Calle s/n. Frenta a la Plaza. NC. (S/T), Circ. X, Secc. A, Mz. 24, Lote 6, S/Catas.) xxxxxx",BALCARCE,BALCARCE,BUENOS AIRES,-38.011388,-58.355556,C
ARBA10180,BM405,Barrio Colinas Verdes(A),Acceso a planta embotelladora de agua S/N,GENERAL PUEYRREDON,SIERRA DE LOS PADRES,BUENOS AIRES,-37.89247,-57.81761,C
ARBA9835,BM408,MUDANZA BM108(C),Avenida Acapulco 628,MAR CHIQUITA,SANTA CLARA DEL MAR,BUENOS AIRES,-37.83877,-57.50368,B
ARBA10360,BM411,BM411(A),Av. Independencia casi Matheu S/N,GENERAL PUEYRREDON,MAR DEL PLATA,BUENOS AIRES,-38.012891,-57.566466,C
ARBA11886,BM415,BM415(A),Ex Parador CR S/N,PINAMAR,PINAMAR,BUENOS AIRES,-37.087737,-56.831572,C
ARBA10788,BM421,BM421 Mudanza WBM101(A),Diagonal El Ombú 3900,GENERAL PUEYRREDON,MAR DEL PLATA,BUENOS AIRES,-38.007582,-57.579856,C
ARBA11884,BM424,Mudanza de BM624(A),Av. Costanera Alte. G Brown( SECTOR BASURERO) S/N,PINAMAR,PINAMAR,BUENOS AIRES,-37.142442,-56.876163,A
ARBA0817,BM457,TECHTEL MAR DEL PLATA (TORRE NOTI),Belgrano  2530,GENERAL PUEYRREDON,MAR DEL PLATA,BUENOS AIRES,-38.001798,-57.546882,B
ARBA13069,BM462,BM462(A),Sport Beach S/N y Vía Pública,PINAMAR,PINAMAR,BUENOS AIRES,-37.077725,-56.825113,C
ARBA11361,BM463,Mudanza BM363(A),LINIERS 555,GENERAL PUEYRREDON,MAR DEL PLATA,BUENOS AIRES,-37.975,-57.543,C
ARBA10273,BM484,TASA SANTA CELINA,"Fte. Estancia La Coronda. NC. Circ. IV, Secc. FF, Frac. XV, Parc. 22. s/n",GENERAL PUEYRREDON,MAR DEL PLATA,BUENOS AIRES,-38.051111,-57.595278,A
ARBA8856,BM500,Balcarce - 500(A),Aristobulo del Valle 229 y mirta_fabano@hotmail.com,BALCARCE,BALCARCE,BUENOS AIRES,-37.840486,-58.2635,C
ARBA11136,BM501,Chapadmalal - 501(E),CALLE 6 S/N y CALLE731,GENERAL PUEYRREDON,CHAPADMALAL,BUENOS AIRES,-38.17834,-57.65456,C
ARBA8661,BM504,General Madariaga - 504(A),AV PELLEGRINI S/ N entre CALLE 8 y CALLE 10,GENERAL MADARIAGA,GENERAL JUAN MADARIAGA,BUENOS AIRES,-37.017089,-57.126611,C
ARBA9409,BM505,General Madariaga - 505(I),Calle Guiraldes esq. Caseros .,GENERAL MADARIAGA,GENERAL JUAN MADARIAGA,BUENOS AIRES,-36.987764,-57.147025,C
ARBA8691,BM506,Miramar - 506(D),AVENIDA 37 936 entre CALLE 20 y CALLE 18,GENERAL ALVARADO,MIRAMAR,BUENOS AIRES,-38.278001,-57.842719,C
ARBA9831,BM507,Santa Clara del Mar-507(A),Deauville y La Florida S/N,MAR CHIQUITA,SANTA CLARA DEL MAR,BUENOS AIRES,-37.828435,-57.514899,C
ARBA9859,BM508,Santa clara del Mar -508(A),Av. Montecarlo y Av. Costanera S/N,MAR CHIQUITA,SANTA CLARA DEL MAR,BUENOS AIRES,-37.833737,-57.496311,C
ARBA8978,BM509,Sierra de los Padres - 509(A),Calle Domingo e/Daniela y Eva .,GENERAL PUEYRREDON,SIERRA DE LOS PADRES,BUENOS AIRES,-37.953192,-57.772022,C
ARBA8774,BM510,Mar del Plata - 510(A),AV. MARIO BRAVO S/N y Esquina 10 de Febrero,GENERAL PUEYRREDON,MAR DEL PLATA,BUENOS AIRES,-38.04515,-57.59302,C
ARBA10173,BM511,Mar del Plata - 511(A),Roque Saenz Peña y Vertiz S/N,GENERAL PUEYRREDON,MAR DEL PLATA,BUENOS AIRES,-38.033874,-57.571909,C
ARBA10172,BM512,Mar del Plata - 512(B),Juramento y Hernandarias S/N,GENERAL PUEYRREDON,MAR DEL PLATA,BUENOS AIRES,-38.039061,-57.559261,C
ARBA10097,BM513,Mar del Plata - 513(A),Santiago del estero y Almafuerte S/N,GENERAL PUEYRREDON,MAR DEL PLATA,BUENOS AIRES,-38.018324,-57.560516,C
ARBA1926,BM514,Mar del Plata Arenales,Arenales 3250,GENERAL PUEYRREDON,MAR DEL PLATA,BUENOS AIRES,-38.015,-57.549,C
ARBA8786,BM515,Mar del Plata - 515(A),EL CANO 7880,GENERAL PUEYRREDON,MAR DEL PLATA,BUENOS AIRES,-38.012226,-57.585798,C
ARBA10168,BM516,Mar del Plata - 516(A),Irala y Heguilor S/N,GENERAL PUEYRREDON,MAR DEL PLATA,BUENOS AIRES,-38.006278,-57.599954,C
ARBA8781,BM517,Mar del Plata - 517(A),Calle Magnasco  S/N entre Calle Rosales y Tripulantes del Fournier,GENERAL PUEYRREDON,MAR DEL PLATA,BUENOS AIRES,-38.019727,-57.596527,C
ARBA10167,BM518,Mar del Plata - 518(A),Plazoleta en Albarado y Chile S/N,GENERAL PUEYRREDON,MAR DEL PLATA,BUENOS AIRES,-37.995638,-57.583748,C
ARBA10171,BM519,Mar del Plata - 519(B),Av Colon y Paraguay S/N,GENERAL PUEYRREDON,MAR DEL PLATA,BUENOS AIRES,-37.972257,-57.612641,C
ARBA8778,BM520,Mar del Plata - 520(A),AV. LIBERTAD 5750,GENERAL PUEYRREDON,MAR DEL PLATA,BUENOS AIRES,-37.978242,-57.574,C
ARBA8788,BM521,Mar del Plata - 521(A),AV. FRAY LUIS BELTRÁN 0 entre CIANCHETA  y GANDHI,GENERAL PUEYRREDON,MAR DEL PLATA,BUENOS AIRES,-37.93707,-57.549276,C
ARBA9141,BM522,Mar del Plata - 522(A),SAN JUAN 253 253 entre PRINCIPAL TEL 3 (Sr. Alejandro) y retirar llave en verduleria de al lado. Coordinar previamente.,GENERAL PUEYRREDON,MAR DEL PLATA,BUENOS AIRES,-37.979608,-57.553578,C
ARBA10249,BM523,Mar del Plata - 523(A),Santa Cruz S/N entre Mexico y POSTE cerca del Club Once Unidos,GENERAL PUEYRREDON,MAR DEL PLATA,BUENOS AIRES,-37.96955,-57.568,C
ARBA10098,BM524,Mar del Plata-524(A),Garay y Guido S/N,GENERAL PUEYRREDON,MAR DEL PLATA,BUENOS AIRES,-38.001589,-57.567394,C
ARBA8643,BM525,Mar del Plata (TMA),Av. Peralta Ramos  2657 entre Las Heras y Sarmiento (Gustavo Cusiolli 0223-15-5166407 encargado),GENERAL PUEYRREDON,MAR DEL PLATA,BUENOS AIRES,-38.007799,-57.540384,C
ARBA8695,BM526,Balneario Punta Mogotes 2 (TMA),Punta Mogotes 0,GENERAL PUEYRREDON,MAR DEL PLATA,BUENOS AIRES,-38.075807,-57.543023,C
ARBA8822,BM527,Playa Bristol Hotel Provincial NH(A),Av. Peralta Ramos --- comercial@granhotelprovincial.net 2502 entre Arenales --- aviles@granhotelprovincial.net y Lamadrid deposito@granhotelprovincial.net,GENERAL PUEYRREDON,MAR DEL PLATA,BUENOS AIRES,-38.006225,-57.541067,C
ARBA10263,BM529,WBM529(A),Kraglievich 0 y Ruta 11,GENERAL PUEYRREDON,MAR DEL PLATA,BUENOS AIRES,-37.935555,-57.532807,C
ARBA9538,BM530,Mundo Marino I,Av. 157 y Calle 51 .,PARTIDO DE LA COSTA,SAN CLEMENTE DEL TUYU,BUENOS AIRES,-36.338774,-56.751,C
ARBA9539,BM531,WBM531(A),Av. Talas del Tuyu  3390,PARTIDO DE LA COSTA,SAN CLEMENTE DEL TUYU,BUENOS AIRES,-36.373636,-56.717764,C
ARBA13617,BM533,WBM533(A)(W),Av. Buenos Aires S/N,VILLA GESELL,VILLA GESELL,BUENOS AIRES,-37.237704,-56.979073,C
